{
  "type": "FeatureCollection",
  "name": "av_export_temp.jihujqhv",
  "crs": {
    "type": "name",
    "properties": { "name": "urn:ogc:def:crs:OGC:1.3:CRS84" }
  },
  "features": [
    {
      "type": "Feature",
      "properties": {
        "id": 1331,
        "kompleksid": "50000",
        "kompleksnavn": "Kristiansund N",
        "driftsenhetsnavn": "Midt-Norge",
        "kulturvernstatus": null,
        "askeladdenid": null,
        "eierstatus2": "Eier (helt eller delvis)"
      },
      "geometry": {
        "type": "Point",
        "coordinates": [7.725279784604606, 63.105576353851113]
      }
    },
    {
      "type": "Feature",
      "properties": {
        "id": 1332,
        "kompleksid": "50001",
        "kompleksnavn": "Harøysund/Håsundet",
        "driftsenhetsnavn": "Midt-Norge",
        "kulturvernstatus": null,
        "askeladdenid": null,
        "eierstatus2": "Eier (helt eller delvis)"
      },
      "geometry": {
        "type": "Point",
        "coordinates": [6.957755050300302, 62.893565003030844]
      }
    },
    {
      "type": "Feature",
      "properties": {
        "id": 1333,
        "kompleksid": "50002",
        "kompleksnavn": "Fosnavåg",
        "driftsenhetsnavn": "Midt-Norge",
        "kulturvernstatus": null,
        "askeladdenid": null,
        "eierstatus2": "Eier (helt eller delvis)"
      },
      "geometry": {
        "type": "Point",
        "coordinates": [5.640255467606403, 62.340358402032678]
      }
    },
    {
      "type": "Feature",
      "properties": {
        "id": 1334,
        "kompleksid": "50003",
        "kompleksnavn": "Urkevik/Holen",
        "driftsenhetsnavn": "Midt-Norge",
        "kulturvernstatus": null,
        "askeladdenid": null,
        "eierstatus2": "Eier (helt eller delvis)"
      },
      "geometry": {
        "type": "Point",
        "coordinates": [6.237156376295635, 62.445352645900748]
      }
    },
    {
      "type": "Feature",
      "properties": {
        "id": 1335,
        "kompleksid": "50004",
        "kompleksnavn": "Rindarøy",
        "driftsenhetsnavn": "Midt-Norge",
        "kulturvernstatus": null,
        "askeladdenid": null,
        "eierstatus2": "Eier (helt eller delvis)"
      },
      "geometry": {
        "type": "Point",
        "coordinates": [6.776862646910327, 62.843898689816093]
      }
    },
    {
      "type": "Feature",
      "properties": {
        "id": 1336,
        "kompleksid": "50005",
        "kompleksnavn": "Vevangvågen",
        "driftsenhetsnavn": "Midt-Norge",
        "kulturvernstatus": null,
        "askeladdenid": null,
        "eierstatus2": "Historisk (avhendet)"
      },
      "geometry": {
        "type": "Point",
        "coordinates": [7.302291865345695, 63.002888705888431]
      }
    },
    {
      "type": "Feature",
      "properties": {
        "id": 1337,
        "kompleksid": "50006",
        "kompleksnavn": "Gjøsund",
        "driftsenhetsnavn": "Midt-Norge",
        "kulturvernstatus": null,
        "askeladdenid": null,
        "eierstatus2": "Eier (helt eller delvis)"
      },
      "geometry": {
        "type": "Point",
        "coordinates": [6.125447539926904, 62.529259059113549]
      }
    },
    {
      "type": "Feature",
      "properties": {
        "id": 1338,
        "kompleksid": "50007",
        "kompleksnavn": "Roald",
        "driftsenhetsnavn": "Midt-Norge",
        "kulturvernstatus": null,
        "askeladdenid": null,
        "eierstatus2": "Eier (helt eller delvis)"
      },
      "geometry": {
        "type": "Point",
        "coordinates": [6.127310095215598, 62.581532260542367]
      }
    },
    {
      "type": "Feature",
      "properties": {
        "id": 1339,
        "kompleksid": "50008",
        "kompleksnavn": "Søvik-Gamlem",
        "driftsenhetsnavn": "Midt-Norge",
        "kulturvernstatus": null,
        "askeladdenid": null,
        "eierstatus2": "Eier (helt eller delvis)"
      },
      "geometry": {
        "type": "Point",
        "coordinates": [6.269683591177794, 62.553169961390793]
      }
    },
    {
      "type": "Feature",
      "properties": {
        "id": 1340,
        "kompleksid": "50009",
        "kompleksnavn": "Sandshamn",
        "driftsenhetsnavn": "Midt-Norge",
        "kulturvernstatus": null,
        "askeladdenid": null,
        "eierstatus2": "Eier (helt eller delvis)"
      },
      "geometry": {
        "type": "Point",
        "coordinates": [5.485381048177534, 62.251369829138078]
      }
    },
    {
      "type": "Feature",
      "properties": {
        "id": 1341,
        "kompleksid": "50010",
        "kompleksnavn": "Steinshamn",
        "driftsenhetsnavn": "Midt-Norge",
        "kulturvernstatus": null,
        "askeladdenid": null,
        "eierstatus2": "Eier (helt eller delvis)"
      },
      "geometry": {
        "type": "Point",
        "coordinates": [6.476294127068488, 62.785823551399773]
      }
    },
    {
      "type": "Feature",
      "properties": {
        "id": 1343,
        "kompleksid": "50012",
        "kompleksnavn": "Røssøyvågen",
        "driftsenhetsnavn": "Midt-Norge",
        "kulturvernstatus": null,
        "askeladdenid": null,
        "eierstatus2": "Historisk (avhendet)"
      },
      "geometry": {
        "type": "Point",
        "coordinates": [6.801506475755697, 62.816923506012465]
      }
    },
    {
      "type": "Feature",
      "properties": {
        "id": 1344,
        "kompleksid": "50013",
        "kompleksnavn": "Gjerdevika",
        "driftsenhetsnavn": "Midt-Norge",
        "kulturvernstatus": null,
        "askeladdenid": null,
        "eierstatus2": "Historisk (avhendet)"
      },
      "geometry": {
        "type": "Point",
        "coordinates": [8.428829701230173, 63.303923153593871]
      }
    },
    {
      "type": "Feature",
      "properties": {
        "id": 1345,
        "kompleksid": "50014",
        "kompleksnavn": "Bjellvåg/Størkevåg",
        "driftsenhetsnavn": "Midt-Norge",
        "kulturvernstatus": null,
        "askeladdenid": null,
        "eierstatus2": "Historisk (avhendet)"
      },
      "geometry": {
        "type": "Point",
        "coordinates": [7.390296419262547, 63.000021042779494]
      }
    },
    {
      "type": "Feature",
      "properties": {
        "id": 1346,
        "kompleksid": "50015",
        "kompleksnavn": "Sandøysundet",
        "driftsenhetsnavn": "Midt-Norge",
        "kulturvernstatus": null,
        "askeladdenid": null,
        "eierstatus2": "Eier (helt eller delvis)"
      },
      "geometry": {
        "type": "Point",
        "coordinates": [7.404288837783688, 63.04813860252694]
      }
    },
    {
      "type": "Feature",
      "properties": {
        "id": 1347,
        "kompleksid": "50016",
        "kompleksnavn": "Askevågen",
        "driftsenhetsnavn": "Midt-Norge",
        "kulturvernstatus": null,
        "askeladdenid": null,
        "eierstatus2": "Historisk (avhendet)"
      },
      "geometry": {
        "type": "Point",
        "coordinates": [7.038126532109588, 62.967256893415907]
      }
    },
    {
      "type": "Feature",
      "properties": {
        "id": 1348,
        "kompleksid": "50017",
        "kompleksnavn": "Bud",
        "driftsenhetsnavn": "Midt-Norge",
        "kulturvernstatus": null,
        "askeladdenid": null,
        "eierstatus2": "Eier (helt eller delvis)"
      },
      "geometry": {
        "type": "Point",
        "coordinates": [6.90715904112639, 62.905077104225761]
      }
    },
    {
      "type": "Feature",
      "properties": {
        "id": 1349,
        "kompleksid": "50018",
        "kompleksnavn": "Kråkholmen",
        "driftsenhetsnavn": "Midt-Norge",
        "kulturvernstatus": null,
        "askeladdenid": null,
        "eierstatus2": "Historisk (avhendet)"
      },
      "geometry": {
        "type": "Point",
        "coordinates": [7.217327911280175, 63.002313674406274]
      }
    },
    {
      "type": "Feature",
      "properties": {
        "id": 1350,
        "kompleksid": "50019",
        "kompleksnavn": "Storholmvågen",
        "driftsenhetsnavn": "Midt-Norge",
        "kulturvernstatus": null,
        "askeladdenid": null,
        "eierstatus2": "Historisk (avhendet)"
      },
      "geometry": {
        "type": "Point",
        "coordinates": [7.118442274921426, 62.985321348765098]
      }
    },
    {
      "type": "Feature",
      "properties": {
        "id": 1351,
        "kompleksid": "50020",
        "kompleksnavn": "Vikan, Fræna",
        "driftsenhetsnavn": "Midt-Norge",
        "kulturvernstatus": null,
        "askeladdenid": null,
        "eierstatus2": "Eier (helt eller delvis)"
      },
      "geometry": {
        "type": "Point",
        "coordinates": [7.013566943257443, 62.950249844943286]
      }
    },
    {
      "type": "Feature",
      "properties": {
        "id": 1352,
        "kompleksid": "50021",
        "kompleksnavn": "Alnes",
        "driftsenhetsnavn": "Midt-Norge",
        "kulturvernstatus": null,
        "askeladdenid": null,
        "eierstatus2": "Eier (helt eller delvis)"
      },
      "geometry": {
        "type": "Point",
        "coordinates": [5.977969992616808, 62.486353993357049]
      }
    },
    {
      "type": "Feature",
      "properties": {
        "id": 1353,
        "kompleksid": "50022",
        "kompleksnavn": "Geilevika",
        "driftsenhetsnavn": "Midt-Norge",
        "kulturvernstatus": null,
        "askeladdenid": null,
        "eierstatus2": "Eier (helt eller delvis)"
      },
      "geometry": {
        "type": "Point",
        "coordinates": [6.01914716520607, 62.466308081509261]
      }
    },
    {
      "type": "Feature",
      "properties": {
        "id": 1354,
        "kompleksid": "50023",
        "kompleksnavn": "Giskegjerdet",
        "driftsenhetsnavn": "Midt-Norge",
        "kulturvernstatus": null,
        "askeladdenid": null,
        "eierstatus2": "Historisk (avhendet)"
      },
      "geometry": {
        "type": "Point",
        "coordinates": [6.064867653596406, 62.502391908499597]
      }
    },
    {
      "type": "Feature",
      "properties": {
        "id": 1355,
        "kompleksid": "50024",
        "kompleksnavn": "Giskegård",
        "driftsenhetsnavn": "Midt-Norge",
        "kulturvernstatus": null,
        "askeladdenid": null,
        "eierstatus2": "Historisk (avhendet)"
      },
      "geometry": {
        "type": "Point",
        "coordinates": [6.050006899606502, 62.49720858978506]
      }
    },
    {
      "type": "Feature",
      "properties": {
        "id": 1356,
        "kompleksid": "50025",
        "kompleksnavn": "Skjong",
        "driftsenhetsnavn": "Midt-Norge",
        "kulturvernstatus": null,
        "askeladdenid": null,
        "eierstatus2": "Historisk (avhendet)"
      },
      "geometry": {
        "type": "Point",
        "coordinates": [6.09939795821793, 62.501394422375938]
      }
    },
    {
      "type": "Feature",
      "properties": {
        "id": 1357,
        "kompleksid": "50026",
        "kompleksnavn": "Valderhaugstranda",
        "driftsenhetsnavn": "Midt-Norge",
        "kulturvernstatus": null,
        "askeladdenid": null,
        "eierstatus2": "Historisk (avhendet)"
      },
      "geometry": {
        "type": "Point",
        "coordinates": [6.128454276791409, 62.495184468457772]
      }
    },
    {
      "type": "Feature",
      "properties": {
        "id": 1358,
        "kompleksid": "50027",
        "kompleksnavn": "Valkve",
        "driftsenhetsnavn": "Midt-Norge",
        "kulturvernstatus": null,
        "askeladdenid": null,
        "eierstatus2": "Eier (helt eller delvis)"
      },
      "geometry": {
        "type": "Point",
        "coordinates": [6.044461317151307, 62.483137844601821]
      }
    },
    {
      "type": "Feature",
      "properties": {
        "id": 1359,
        "kompleksid": "50028",
        "kompleksnavn": "Vikebukt",
        "driftsenhetsnavn": "Midt-Norge",
        "kulturvernstatus": null,
        "askeladdenid": null,
        "eierstatus2": "Historisk (avhendet)"
      },
      "geometry": {
        "type": "Point",
        "coordinates": [6.070639172812997, 62.542960267460465]
      }
    },
    {
      "type": "Feature",
      "properties": {
        "id": 1360,
        "kompleksid": "50029",
        "kompleksnavn": "Austnes",
        "driftsenhetsnavn": "Midt-Norge",
        "kulturvernstatus": null,
        "askeladdenid": null,
        "eierstatus2": "Eier (helt eller delvis)"
      },
      "geometry": {
        "type": "Point",
        "coordinates": [6.276757318401468, 62.63401064712113]
      }
    },
    {
      "type": "Feature",
      "properties": {
        "id": 1361,
        "kompleksid": "50030",
        "kompleksnavn": "Flem",
        "driftsenhetsnavn": "Midt-Norge",
        "kulturvernstatus": null,
        "askeladdenid": null,
        "eierstatus2": "Eier (helt eller delvis)"
      },
      "geometry": {
        "type": "Point",
        "coordinates": [6.23755535855924, 62.681991843382015]
      }
    },
    {
      "type": "Feature",
      "properties": {
        "id": 1362,
        "kompleksid": "50031",
        "kompleksnavn": "Haram",
        "driftsenhetsnavn": "Midt-Norge",
        "kulturvernstatus": null,
        "askeladdenid": null,
        "eierstatus2": "Eier (helt eller delvis)"
      },
      "geometry": {
        "type": "Point",
        "coordinates": [6.187607564352829, 62.652701907968201]
      }
    },
    {
      "type": "Feature",
      "properties": {
        "id": 1363,
        "kompleksid": "50032",
        "kompleksnavn": "Hellandshavn",
        "driftsenhetsnavn": "Midt-Norge",
        "kulturvernstatus": null,
        "askeladdenid": null,
        "eierstatus2": "Historisk (avhendet)"
      },
      "geometry": {
        "type": "Point",
        "coordinates": [6.45655530925004, 62.613631306764709]
      }
    },
    {
      "type": "Feature",
      "properties": {
        "id": 1364,
        "kompleksid": "50033",
        "kompleksnavn": "Lausund",
        "driftsenhetsnavn": "Midt-Norge",
        "kulturvernstatus": null,
        "askeladdenid": null,
        "eierstatus2": "Historisk (avhendet)"
      },
      "geometry": {
        "type": "Point",
        "coordinates": [6.218709328837335, 62.601335747194007]
      }
    },
    {
      "type": "Feature",
      "properties": {
        "id": 1365,
        "kompleksid": "50034",
        "kompleksnavn": "Longva",
        "driftsenhetsnavn": "Midt-Norge",
        "kulturvernstatus": null,
        "askeladdenid": null,
        "eierstatus2": "Historisk (avhendet)"
      },
      "geometry": {
        "type": "Point",
        "coordinates": [6.270907850752205, 62.664166215611857]
      }
    },
    {
      "type": "Feature",
      "properties": {
        "id": 1366,
        "kompleksid": "50035",
        "kompleksnavn": "Rogne",
        "driftsenhetsnavn": "Midt-Norge",
        "kulturvernstatus": null,
        "askeladdenid": null,
        "eierstatus2": "Historisk (avhendet)"
      },
      "geometry": {
        "type": "Point",
        "coordinates": [6.348293875486204, 62.6603248689078]
      }
    },
    {
      "type": "Feature",
      "properties": {
        "id": 1367,
        "kompleksid": "50036",
        "kompleksnavn": "Vågholmane",
        "driftsenhetsnavn": "Midt-Norge",
        "kulturvernstatus": null,
        "askeladdenid": null,
        "eierstatus2": "Historisk (avhendet)"
      },
      "geometry": {
        "type": "Point",
        "coordinates": [6.420097107260273, 62.710792560343378]
      }
    },
    {
      "type": "Feature",
      "properties": {
        "id": 1368,
        "kompleksid": "50037",
        "kompleksnavn": "Brandal",
        "driftsenhetsnavn": "Midt-Norge",
        "kulturvernstatus": null,
        "askeladdenid": null,
        "eierstatus2": "Historisk (avhendet)"
      },
      "geometry": {
        "type": "Point",
        "coordinates": [6.01015843006878, 62.400865934157672]
      }
    },
    {
      "type": "Feature",
      "properties": {
        "id": 1369,
        "kompleksid": "50038",
        "kompleksnavn": "Hareid",
        "driftsenhetsnavn": "Midt-Norge",
        "kulturvernstatus": null,
        "askeladdenid": null,
        "eierstatus2": "Eier (helt eller delvis)"
      },
      "geometry": {
        "type": "Point",
        "coordinates": [6.033611854544469, 62.370819827667226]
      }
    },
    {
      "type": "Feature",
      "properties": {
        "id": 1370,
        "kompleksid": "50039",
        "kompleksnavn": "Hjørungavåg",
        "driftsenhetsnavn": "Midt-Norge",
        "kulturvernstatus": null,
        "askeladdenid": null,
        "eierstatus2": "Historisk (avhendet)"
      },
      "geometry": {
        "type": "Point",
        "coordinates": [6.084321000180314, 62.354066500365676]
      }
    },
    {
      "type": "Feature",
      "properties": {
        "id": 1371,
        "kompleksid": "50040",
        "kompleksnavn": "Eggesbønes",
        "driftsenhetsnavn": "Midt-Norge",
        "kulturvernstatus": null,
        "askeladdenid": null,
        "eierstatus2": "Eier (helt eller delvis)"
      },
      "geometry": {
        "type": "Point",
        "coordinates": [5.652428034022116, 62.322562685148306]
      }
    },
    {
      "type": "Feature",
      "properties": {
        "id": 1372,
        "kompleksid": "50041",
        "kompleksnavn": "Kopperstad",
        "driftsenhetsnavn": "Midt-Norge",
        "kulturvernstatus": null,
        "askeladdenid": null,
        "eierstatus2": "Historisk (avhendet)"
      },
      "geometry": {
        "type": "Point",
        "coordinates": [5.57754904693323, 62.33576437480567]
      }
    },
    {
      "type": "Feature",
      "properties": {
        "id": 1373,
        "kompleksid": "50042",
        "kompleksnavn": "Kvalsund",
        "driftsenhetsnavn": "Midt-Norge",
        "kulturvernstatus": null,
        "askeladdenid": null,
        "eierstatus2": "Eier (helt eller delvis)"
      },
      "geometry": {
        "type": "Point",
        "coordinates": [5.60703813876902, 62.34314305890554]
      }
    },
    {
      "type": "Feature",
      "properties": {
        "id": 1374,
        "kompleksid": "50043",
        "kompleksnavn": "Kvalsvik",
        "driftsenhetsnavn": "Midt-Norge",
        "kulturvernstatus": null,
        "askeladdenid": null,
        "eierstatus2": "Eier (helt eller delvis)"
      },
      "geometry": {
        "type": "Point",
        "coordinates": [5.558023392930535, 62.366196299976608]
      }
    },
    {
      "type": "Feature",
      "properties": {
        "id": 1375,
        "kompleksid": "50044",
        "kompleksnavn": "Leinevika",
        "driftsenhetsnavn": "Midt-Norge",
        "kulturvernstatus": null,
        "askeladdenid": null,
        "eierstatus2": "Eier (helt eller delvis)"
      },
      "geometry": {
        "type": "Point",
        "coordinates": [5.689692887452686, 62.342500707192826]
      }
    },
    {
      "type": "Feature",
      "properties": {
        "id": 1376,
        "kompleksid": "50045",
        "kompleksnavn": "Remøy",
        "driftsenhetsnavn": "Midt-Norge",
        "kulturvernstatus": null,
        "askeladdenid": null,
        "eierstatus2": "Eier (helt eller delvis)"
      },
      "geometry": {
        "type": "Point",
        "coordinates": [5.660671791602353, 62.361386492497275]
      }
    },
    {
      "type": "Feature",
      "properties": {
        "id": 1377,
        "kompleksid": "50046",
        "kompleksnavn": "Runde",
        "driftsenhetsnavn": "Midt-Norge",
        "kulturvernstatus": null,
        "askeladdenid": null,
        "eierstatus2": "Historisk (avhendet)"
      },
      "geometry": {
        "type": "Point",
        "coordinates": [5.660952122273556, 62.397209173820755]
      }
    },
    {
      "type": "Feature",
      "properties": {
        "id": 1378,
        "kompleksid": "50047",
        "kompleksnavn": "Sandebukta",
        "driftsenhetsnavn": "Midt-Norge",
        "kulturvernstatus": null,
        "askeladdenid": null,
        "eierstatus2": "Historisk (avhendet)"
      },
      "geometry": {
        "type": "Point",
        "coordinates": [5.71997076202775, 62.360505222069214]
      }
    },
    {
      "type": "Feature",
      "properties": {
        "id": 1379,
        "kompleksid": "50048",
        "kompleksnavn": "Drønnesundvågen",
        "driftsenhetsnavn": "Midt-Norge",
        "kulturvernstatus": null,
        "askeladdenid": null,
        "eierstatus2": "Historisk (avhendet)"
      },
      "geometry": {
        "type": "Point",
        "coordinates": [6.577640805057422, 62.661602213844432]
      }
    },
    {
      "type": "Feature",
      "properties": {
        "id": 1380,
        "kompleksid": "50049",
        "kompleksnavn": "Uggelvik",
        "driftsenhetsnavn": "Midt-Norge",
        "kulturvernstatus": null,
        "askeladdenid": null,
        "eierstatus2": "Eier (helt eller delvis)"
      },
      "geometry": {
        "type": "Point",
        "coordinates": [6.696278836474736, 62.701626994183172]
      }
    },
    {
      "type": "Feature",
      "properties": {
        "id": 1381,
        "kompleksid": "50050",
        "kompleksnavn": "Gjerdsvika",
        "driftsenhetsnavn": "Midt-Norge",
        "kulturvernstatus": null,
        "askeladdenid": null,
        "eierstatus2": "Eier (helt eller delvis)"
      },
      "geometry": {
        "type": "Point",
        "coordinates": [5.567511039037628, 62.259325843033089]
      }
    },
    {
      "type": "Feature",
      "properties": {
        "id": 1382,
        "kompleksid": "50051",
        "kompleksnavn": "Haugsbygda",
        "driftsenhetsnavn": "Midt-Norge",
        "kulturvernstatus": null,
        "askeladdenid": null,
        "eierstatus2": "Eier (helt eller delvis)"
      },
      "geometry": {
        "type": "Point",
        "coordinates": [5.575007492849764, 62.234730453345755]
      }
    },
    {
      "type": "Feature",
      "properties": {
        "id": 1383,
        "kompleksid": "50052",
        "kompleksnavn": "Finnøy",
        "driftsenhetsnavn": "Midt-Norge",
        "kulturvernstatus": null,
        "askeladdenid": null,
        "eierstatus2": "Historisk (avhendet)"
      },
      "geometry": {
        "type": "Point",
        "coordinates": [6.51044386664519, 62.801787735847093]
      }
    },
    {
      "type": "Feature",
      "properties": {
        "id": 1384,
        "kompleksid": "50053",
        "kompleksnavn": "Havnevågen",
        "driftsenhetsnavn": "Midt-Norge",
        "kulturvernstatus": null,
        "askeladdenid": null,
        "eierstatus2": "Historisk (avhendet)"
      },
      "geometry": {
        "type": "Point",
        "coordinates": [6.574567896977618, 62.821825455724962]
      }
    },
    {
      "type": "Feature",
      "properties": {
        "id": 1385,
        "kompleksid": "50054",
        "kompleksnavn": "Myklebust",
        "driftsenhetsnavn": "Midt-Norge",
        "kulturvernstatus": null,
        "askeladdenid": null,
        "eierstatus2": "Eier (helt eller delvis)"
      },
      "geometry": {
        "type": "Point",
        "coordinates": [6.456222413046154, 62.725639811741075]
      }
    },
    {
      "type": "Feature",
      "properties": {
        "id": 1386,
        "kompleksid": "50055",
        "kompleksnavn": "Dyrnesvågen",
        "driftsenhetsnavn": "Midt-Norge",
        "kulturvernstatus": null,
        "askeladdenid": null,
        "eierstatus2": "Eier (helt eller delvis)"
      },
      "geometry": {
        "type": "Point",
        "coordinates": [7.842807759332866, 63.4273579218005]
      }
    },
    {
      "type": "Feature",
      "properties": {
        "id": 1387,
        "kompleksid": "50056",
        "kompleksnavn": "Edøy",
        "driftsenhetsnavn": "Midt-Norge",
        "kulturvernstatus": null,
        "askeladdenid": null,
        "eierstatus2": "Historisk (avhendet)"
      },
      "geometry": {
        "type": "Point",
        "coordinates": [8.13641178582381, 63.285935408775408]
      }
    },
    {
      "type": "Feature",
      "properties": {
        "id": 1388,
        "kompleksid": "50057",
        "kompleksnavn": "Hopen",
        "driftsenhetsnavn": "Midt-Norge",
        "kulturvernstatus": null,
        "askeladdenid": null,
        "eierstatus2": "Historisk (avhendet)"
      },
      "geometry": {
        "type": "Point",
        "coordinates": [8.005397799519045, 63.4651578035973]
      }
    },
    {
      "type": "Feature",
      "properties": {
        "id": 1389,
        "kompleksid": "50058",
        "kompleksnavn": "Råkabukta/Råket",
        "driftsenhetsnavn": "Midt-Norge",
        "kulturvernstatus": null,
        "askeladdenid": null,
        "eierstatus2": "Ikke eier"
      },
      "geometry": {
        "type": "Point",
        "coordinates": [7.827039113051699, 63.421940804332671]
      }
    },
    {
      "type": "Feature",
      "properties": {
        "id": 1390,
        "kompleksid": "50059",
        "kompleksnavn": "Steinsøy",
        "driftsenhetsnavn": "Midt-Norge",
        "kulturvernstatus": null,
        "askeladdenid": null,
        "eierstatus2": "Eier (helt eller delvis)"
      },
      "geometry": {
        "type": "Point",
        "coordinates": [7.780833372909701, 63.367166613575755]
      }
    },
    {
      "type": "Feature",
      "properties": {
        "id": 1391,
        "kompleksid": "50060",
        "kompleksnavn": "Leirvalen",
        "driftsenhetsnavn": "Midt-Norge",
        "kulturvernstatus": null,
        "askeladdenid": null,
        "eierstatus2": "Eier (helt eller delvis)"
      },
      "geometry": {
        "type": "Point",
        "coordinates": [8.028878891769667, 63.207704771973638]
      }
    },
    {
      "type": "Feature",
      "properties": {
        "id": 1392,
        "kompleksid": "50061",
        "kompleksnavn": "Flø",
        "driftsenhetsnavn": "Midt-Norge",
        "kulturvernstatus": null,
        "askeladdenid": null,
        "eierstatus2": "Historisk (avhendet)"
      },
      "geometry": {
        "type": "Point",
        "coordinates": [5.847815368979923, 62.402831639136927]
      }
    },
    {
      "type": "Feature",
      "properties": {
        "id": 1393,
        "kompleksid": "50062",
        "kompleksnavn": "Ulsteinvik",
        "driftsenhetsnavn": "Midt-Norge",
        "kulturvernstatus": null,
        "askeladdenid": null,
        "eierstatus2": "Historisk (avhendet)"
      },
      "geometry": {
        "type": "Point",
        "coordinates": [5.845832720357504, 62.341589100854769]
      }
    },
    {
      "type": "Feature",
      "properties": {
        "id": 1394,
        "kompleksid": "50063",
        "kompleksnavn": "Flugevåg",
        "driftsenhetsnavn": "Midt-Norge",
        "kulturvernstatus": null,
        "askeladdenid": null,
        "eierstatus2": "Historisk (avhendet)"
      },
      "geometry": {
        "type": "Point",
        "coordinates": [5.406180670216598, 62.129196747119082]
      }
    },
    {
      "type": "Feature",
      "properties": {
        "id": 1395,
        "kompleksid": "50064",
        "kompleksnavn": "Rovde",
        "driftsenhetsnavn": "Midt-Norge",
        "kulturvernstatus": null,
        "askeladdenid": null,
        "eierstatus2": "Historisk (avhendet)"
      },
      "geometry": {
        "type": "Point",
        "coordinates": [5.74816950579349, 62.181484754195033]
      }
    },
    {
      "type": "Feature",
      "properties": {
        "id": 1396,
        "kompleksid": "50065",
        "kompleksnavn": "Volda",
        "driftsenhetsnavn": "Midt-Norge",
        "kulturvernstatus": null,
        "askeladdenid": null,
        "eierstatus2": "Historisk (avhendet)"
      },
      "geometry": {
        "type": "Point",
        "coordinates": [6.069171133025524, 62.144015432007876]
      }
    },
    {
      "type": "Feature",
      "properties": {
        "id": 1397,
        "kompleksid": "50066",
        "kompleksnavn": "Vartdal",
        "driftsenhetsnavn": "Midt-Norge",
        "kulturvernstatus": null,
        "askeladdenid": null,
        "eierstatus2": "Eier (helt eller delvis)"
      },
      "geometry": {
        "type": "Point",
        "coordinates": [6.095125769590929, 62.308184736071354]
      }
    },
    {
      "type": "Feature",
      "properties": {
        "id": 1398,
        "kompleksid": "50067",
        "kompleksnavn": "Rødeggen",
        "driftsenhetsnavn": "Midt-Norge",
        "kulturvernstatus": null,
        "askeladdenid": null,
        "eierstatus2": "Historisk (avhendet)"
      },
      "geometry": {
        "type": "Point",
        "coordinates": [7.576014751202101, 63.103283911038147]
      }
    },
    {
      "type": "Feature",
      "properties": {
        "id": 1399,
        "kompleksid": "50068",
        "kompleksnavn": "Gjengstøbukta/Smørholmen",
        "driftsenhetsnavn": "Midt-Norge",
        "kulturvernstatus": null,
        "askeladdenid": null,
        "eierstatus2": "Historisk (avhendet)"
      },
      "geometry": {
        "type": "Point",
        "coordinates": [7.280888453631341, 63.007077567109114]
      }
    },
    {
      "type": "Feature",
      "properties": {
        "id": 1401,
        "kompleksid": "50070",
        "kompleksnavn": "Julshamn",
        "driftsenhetsnavn": "Midt-Norge",
        "kulturvernstatus": null,
        "askeladdenid": null,
        "eierstatus2": "Historisk (avhendet)"
      },
      "geometry": {
        "type": "Point",
        "coordinates": [7.166237946147163, 62.995327201930216]
      }
    },
    {
      "type": "Feature",
      "properties": {
        "id": 1402,
        "kompleksid": "50071",
        "kompleksnavn": "Nordre Bjørnsund",
        "driftsenhetsnavn": "Midt-Norge",
        "kulturvernstatus": null,
        "askeladdenid": null,
        "eierstatus2": "Eier (helt eller delvis)"
      },
      "geometry": {
        "type": "Point",
        "coordinates": [6.823776961506132, 62.892691938565811]
      }
    },
    {
      "type": "Feature",
      "properties": {
        "id": 1403,
        "kompleksid": "50072",
        "kompleksnavn": "Søndre Bjørnsund",
        "driftsenhetsnavn": "Midt-Norge",
        "kulturvernstatus": null,
        "askeladdenid": null,
        "eierstatus2": "Eier (helt eller delvis)"
      },
      "geometry": {
        "type": "Point",
        "coordinates": [6.809858235039296, 62.886622181474479]
      }
    },
    {
      "type": "Feature",
      "properties": {
        "id": 1404,
        "kompleksid": "50073",
        "kompleksnavn": "Blindheim",
        "driftsenhetsnavn": "Midt-Norge",
        "kulturvernstatus": null,
        "askeladdenid": null,
        "eierstatus2": "Historisk (avhendet)"
      },
      "geometry": {
        "type": "Point",
        "coordinates": [6.053713979283878, 62.569016093944647]
      }
    },
    {
      "type": "Feature",
      "properties": {
        "id": 1406,
        "kompleksid": "50075",
        "kompleksnavn": "Giskeødegård",
        "driftsenhetsnavn": "Midt-Norge",
        "kulturvernstatus": null,
        "askeladdenid": null,
        "eierstatus2": "Historisk (avhendet)"
      },
      "geometry": {
        "type": "Point",
        "coordinates": [6.039768320680192, 62.512426571341059]
      }
    },
    {
      "type": "Feature",
      "properties": {
        "id": 1407,
        "kompleksid": "50076",
        "kompleksnavn": "Synesvågen",
        "driftsenhetsnavn": "Midt-Norge",
        "kulturvernstatus": null,
        "askeladdenid": null,
        "eierstatus2": "Historisk (avhendet)"
      },
      "geometry": {
        "type": "Point",
        "coordinates": [6.020100118856651, 62.542402154573224]
      }
    },
    {
      "type": "Feature",
      "properties": {
        "id": 1408,
        "kompleksid": "50077",
        "kompleksnavn": "Fjørtoft Nordre",
        "driftsenhetsnavn": "Midt-Norge",
        "kulturvernstatus": null,
        "askeladdenid": null,
        "eierstatus2": "Historisk (avhendet)"
      },
      "geometry": {
        "type": "Point",
        "coordinates": [6.373607238642012, 62.708534149019059]
      }
    },
    {
      "type": "Feature",
      "properties": {
        "id": 1409,
        "kompleksid": "50078",
        "kompleksnavn": "Bøvågen",
        "driftsenhetsnavn": "Midt-Norge",
        "kulturvernstatus": null,
        "askeladdenid": null,
        "eierstatus2": "Historisk (avhendet)"
      },
      "geometry": {
        "type": "Point",
        "coordinates": [5.745579489662962, 62.356197437295101]
      }
    },
    {
      "type": "Feature",
      "properties": {
        "id": 1411,
        "kompleksid": "50080",
        "kompleksnavn": "Skorpa",
        "driftsenhetsnavn": "Midt-Norge",
        "kulturvernstatus": null,
        "askeladdenid": null,
        "eierstatus2": "Historisk (avhendet)"
      },
      "geometry": {
        "type": "Point",
        "coordinates": [5.500346583229999, 62.322397262209577]
      }
    },
    {
      "type": "Feature",
      "properties": {
        "id": 1412,
        "kompleksid": "50081",
        "kompleksnavn": "Grip",
        "driftsenhetsnavn": "Midt-Norge",
        "kulturvernstatus": "LVP – verneklasse 2",
        "askeladdenid": null,
        "eierstatus2": "Historisk (avhendet)"
      },
      "geometry": {
        "type": "Point",
        "coordinates": [7.59438759285726, 63.218266875171054]
      }
    },
    {
      "type": "Feature",
      "properties": {
        "id": 1413,
        "kompleksid": "50082",
        "kompleksnavn": "Molde",
        "driftsenhetsnavn": "Midt-Norge",
        "kulturvernstatus": null,
        "askeladdenid": null,
        "eierstatus2": "Eier (helt eller delvis)"
      },
      "geometry": {
        "type": "Point",
        "coordinates": [7.15155509356059, 62.733316200874775]
      }
    },
    {
      "type": "Feature",
      "properties": {
        "id": 1414,
        "kompleksid": "50083",
        "kompleksnavn": "Haugsholmen",
        "driftsenhetsnavn": "Midt-Norge",
        "kulturvernstatus": null,
        "askeladdenid": null,
        "eierstatus2": "Historisk (avhendet)"
      },
      "geometry": {
        "type": "Point",
        "coordinates": [5.399445773595144, 62.171288519942443]
      }
    },
    {
      "type": "Feature",
      "properties": {
        "id": 1415,
        "kompleksid": "50084",
        "kompleksnavn": "Orten",
        "driftsenhetsnavn": "Midt-Norge",
        "kulturvernstatus": null,
        "askeladdenid": null,
        "eierstatus2": "Historisk (avhendet)"
      },
      "geometry": {
        "type": "Point",
        "coordinates": [6.653574824956747, 62.785439942878469]
      }
    },
    {
      "type": "Feature",
      "properties": {
        "id": 1416,
        "kompleksid": "50085",
        "kompleksnavn": "Brattvær",
        "driftsenhetsnavn": "Midt-Norge",
        "kulturvernstatus": null,
        "askeladdenid": null,
        "eierstatus2": "Historisk (avhendet)"
      },
      "geometry": {
        "type": "Point",
        "coordinates": [7.812842922432954, 63.454149328599151]
      }
    },
    {
      "type": "Feature",
      "properties": {
        "id": 1417,
        "kompleksid": "50086",
        "kompleksnavn": "Nordvika",
        "driftsenhetsnavn": "Midt-Norge",
        "kulturvernstatus": null,
        "askeladdenid": null,
        "eierstatus2": "Eier (helt eller delvis)"
      },
      "geometry": {
        "type": "Point",
        "coordinates": [8.150223927199505, 63.438127340387808]
      }
    },
    {
      "type": "Feature",
      "properties": {
        "id": 1418,
        "kompleksid": "50087",
        "kompleksnavn": "Sulesund/ Sulesundholmen",
        "driftsenhetsnavn": "Midt-Norge",
        "kulturvernstatus": null,
        "askeladdenid": null,
        "eierstatus2": "Historisk (avhendet)"
      },
      "geometry": {
        "type": "Point",
        "coordinates": [6.166507100745437, 62.394802251385499]
      }
    },
    {
      "type": "Feature",
      "properties": {
        "id": 1419,
        "kompleksid": "50088",
        "kompleksnavn": "Barstadvika",
        "driftsenhetsnavn": "Midt-Norge",
        "kulturvernstatus": null,
        "askeladdenid": null,
        "eierstatus2": "Historisk (avhendet)"
      },
      "geometry": {
        "type": "Point",
        "coordinates": [6.266748023029983, 62.361229527826367]
      }
    },
    {
      "type": "Feature",
      "properties": {
        "id": 1420,
        "kompleksid": "50089",
        "kompleksnavn": "Holmeskjærvika",
        "driftsenhetsnavn": "Midt-Norge",
        "kulturvernstatus": null,
        "askeladdenid": null,
        "eierstatus2": "Historisk (avhendet)"
      },
      "geometry": {
        "type": "Point",
        "coordinates": [6.28821339438514, 62.459391551303241]
      }
    },
    {
      "type": "Feature",
      "properties": {
        "id": 1421,
        "kompleksid": "50090",
        "kompleksnavn": "Vikan, Aure",
        "driftsenhetsnavn": "Midt-Norge",
        "kulturvernstatus": null,
        "askeladdenid": null,
        "eierstatus2": "Historisk (avhendet)"
      },
      "geometry": {
        "type": "Point",
        "coordinates": [8.684785732250454, 63.370447986820132]
      }
    },
    {
      "type": "Feature",
      "properties": {
        "id": 1422,
        "kompleksid": "50091",
        "kompleksnavn": "Honningsøy-Kjønnøy",
        "driftsenhetsnavn": "Midt-Norge",
        "kulturvernstatus": null,
        "askeladdenid": null,
        "eierstatus2": "Eier (helt eller delvis)"
      },
      "geometry": {
        "type": "Point",
        "coordinates": [7.495307237382656, 63.071574698864282]
      }
    },
    {
      "type": "Feature",
      "properties": {
        "id": 1423,
        "kompleksid": "50092",
        "kompleksnavn": "Sveggesundet",
        "driftsenhetsnavn": "Midt-Norge",
        "kulturvernstatus": null,
        "askeladdenid": null,
        "eierstatus2": "Historisk (avhendet)"
      },
      "geometry": {
        "type": "Point",
        "coordinates": [7.596789981121421, 63.10393073731499]
      }
    },
    {
      "type": "Feature",
      "properties": {
        "id": 1425,
        "kompleksid": "50094",
        "kompleksnavn": "Ringsøy / Ringsøykjeila",
        "driftsenhetsnavn": "Midt-Norge",
        "kulturvernstatus": null,
        "askeladdenid": null,
        "eierstatus2": "Historisk (avhendet)"
      },
      "geometry": {
        "type": "Point",
        "coordinates": [7.814157617062767, 63.335486573352924]
      }
    },
    {
      "type": "Feature",
      "properties": {
        "id": 1426,
        "kompleksid": "50095",
        "kompleksnavn": "Veidholmen/Ringbukta",
        "driftsenhetsnavn": "Midt-Norge",
        "kulturvernstatus": null,
        "askeladdenid": null,
        "eierstatus2": "Eier (helt eller delvis)"
      },
      "geometry": {
        "type": "Point",
        "coordinates": [7.972317584398713, 63.509066002426323]
      }
    },
    {
      "type": "Feature",
      "properties": {
        "id": 1427,
        "kompleksid": "50096",
        "kompleksnavn": "Veidholmen/Været",
        "driftsenhetsnavn": "Midt-Norge",
        "kulturvernstatus": null,
        "askeladdenid": null,
        "eierstatus2": "Eier (helt eller delvis)"
      },
      "geometry": {
        "type": "Point",
        "coordinates": [7.956648189463121, 63.519742340606854]
      }
    },
    {
      "type": "Feature",
      "properties": {
        "id": 1428,
        "kompleksid": "50097",
        "kompleksnavn": "Bekkholmleira",
        "driftsenhetsnavn": "Midt-Norge",
        "kulturvernstatus": null,
        "askeladdenid": null,
        "eierstatus2": "Eier (helt eller delvis)"
      },
      "geometry": {
        "type": "Point",
        "coordinates": [7.936362117212995, 63.163345648552884]
      }
    },
    {
      "type": "Feature",
      "properties": {
        "id": 1429,
        "kompleksid": "50098",
        "kompleksnavn": "Kløvningsviken",
        "driftsenhetsnavn": "Midt-Norge",
        "kulturvernstatus": null,
        "askeladdenid": null,
        "eierstatus2": "Historisk (avhendet)"
      },
      "geometry": {
        "type": "Point",
        "coordinates": [5.442120646458071, 62.179833865579113]
      }
    },
    {
      "type": "Feature",
      "properties": {
        "id": 1430,
        "kompleksid": "50099",
        "kompleksnavn": "Åramsundet",
        "driftsenhetsnavn": "Midt-Norge",
        "kulturvernstatus": null,
        "askeladdenid": null,
        "eierstatus2": "Eier (helt eller delvis)"
      },
      "geometry": {
        "type": "Point",
        "coordinates": [5.492606921299702, 62.199683645267818]
      }
    },
    {
      "type": "Feature",
      "properties": {
        "id": 1431,
        "kompleksid": "50100",
        "kompleksnavn": "Rørvik",
        "driftsenhetsnavn": "Midt-Norge",
        "kulturvernstatus": null,
        "askeladdenid": null,
        "eierstatus2": "Eier (helt eller delvis)"
      },
      "geometry": {
        "type": "Point",
        "coordinates": [11.227473913253409, 64.858453707640578]
      }
    },
    {
      "type": "Feature",
      "properties": {
        "id": 1432,
        "kompleksid": "50101",
        "kompleksnavn": "Hasvåg/Flatan",
        "driftsenhetsnavn": "Midt-Norge",
        "kulturvernstatus": null,
        "askeladdenid": null,
        "eierstatus2": "Historisk (avhendet)"
      },
      "geometry": {
        "type": "Point",
        "coordinates": [10.591417284716513, 64.444064059323352]
      }
    },
    {
      "type": "Feature",
      "properties": {
        "id": 1433,
        "kompleksid": "50102",
        "kompleksnavn": "Kvaløysæter",
        "driftsenhetsnavn": "Midt-Norge",
        "kulturvernstatus": null,
        "askeladdenid": null,
        "eierstatus2": "Eier (helt eller delvis)"
      },
      "geometry": {
        "type": "Point",
        "coordinates": [10.697170349982718, 64.475574651872975]
      }
    },
    {
      "type": "Feature",
      "properties": {
        "id": 1434,
        "kompleksid": "50103",
        "kompleksnavn": "Kvernøya",
        "driftsenhetsnavn": "Midt-Norge",
        "kulturvernstatus": null,
        "askeladdenid": null,
        "eierstatus2": "Historisk (avhendet)"
      },
      "geometry": {
        "type": "Point",
        "coordinates": [10.807852781280967, 64.514886608107233]
      }
    },
    {
      "type": "Feature",
      "properties": {
        "id": 1435,
        "kompleksid": "50104",
        "kompleksnavn": "Småværet",
        "driftsenhetsnavn": "Midt-Norge",
        "kulturvernstatus": null,
        "askeladdenid": null,
        "eierstatus2": "Historisk (avhendet)"
      },
      "geometry": {
        "type": "Point",
        "coordinates": [10.549955334286315, 64.438394655856456]
      }
    },
    {
      "type": "Feature",
      "properties": {
        "id": 1436,
        "kompleksid": "50105",
        "kompleksnavn": "Utvorda",
        "driftsenhetsnavn": "Midt-Norge",
        "kulturvernstatus": null,
        "askeladdenid": null,
        "eierstatus2": "Eier (helt eller delvis)"
      },
      "geometry": {
        "type": "Point",
        "coordinates": [10.94978385613447, 64.594122238394746]
      }
    },
    {
      "type": "Feature",
      "properties": {
        "id": 1437,
        "kompleksid": "50106",
        "kompleksnavn": "Småland",
        "driftsenhetsnavn": "Midt-Norge",
        "kulturvernstatus": null,
        "askeladdenid": null,
        "eierstatus2": "Eier (helt eller delvis)"
      },
      "geometry": {
        "type": "Point",
        "coordinates": [10.70337525840648, 63.596867912076817]
      }
    },
    {
      "type": "Feature",
      "properties": {
        "id": 1438,
        "kompleksid": "50107",
        "kompleksnavn": "Haug",
        "driftsenhetsnavn": "Midt-Norge",
        "kulturvernstatus": null,
        "askeladdenid": null,
        "eierstatus2": "Eier (helt eller delvis)"
      },
      "geometry": {
        "type": "Point",
        "coordinates": [11.619945756183842, 65.053442619311781]
      }
    },
    {
      "type": "Feature",
      "properties": {
        "id": 1439,
        "kompleksid": "50108",
        "kompleksnavn": "Leknesbukta",
        "driftsenhetsnavn": "Midt-Norge",
        "kulturvernstatus": null,
        "askeladdenid": null,
        "eierstatus2": "Historisk (avhendet)"
      },
      "geometry": {
        "type": "Point",
        "coordinates": [11.716426445626748, 65.111218447641434]
      }
    },
    {
      "type": "Feature",
      "properties": {
        "id": 1440,
        "kompleksid": "50109",
        "kompleksnavn": "Nord-Gutvik",
        "driftsenhetsnavn": "Midt-Norge",
        "kulturvernstatus": null,
        "askeladdenid": null,
        "eierstatus2": "Historisk (avhendet)"
      },
      "geometry": {
        "type": "Point",
        "coordinates": [11.88046364551345, 65.123384499098137]
      }
    },
    {
      "type": "Feature",
      "properties": {
        "id": 1441,
        "kompleksid": "50110",
        "kompleksnavn": "Sklinna",
        "driftsenhetsnavn": "Midt-Norge",
        "kulturvernstatus": null,
        "askeladdenid": null,
        "eierstatus2": "Eier (helt eller delvis)"
      },
      "geometry": {
        "type": "Point",
        "coordinates": [10.989403433759929, 65.202898416426763]
      }
    },
    {
      "type": "Feature",
      "properties": {
        "id": 1442,
        "kompleksid": "50111",
        "kompleksnavn": "Sør-Gutvik",
        "driftsenhetsnavn": "Midt-Norge",
        "kulturvernstatus": null,
        "askeladdenid": null,
        "eierstatus2": "Eier (helt eller delvis)"
      },
      "geometry": {
        "type": "Point",
        "coordinates": [11.829617990154119, 65.085069228534593]
      }
    },
    {
      "type": "Feature",
      "properties": {
        "id": 1443,
        "kompleksid": "50112",
        "kompleksnavn": "Arnøy",
        "driftsenhetsnavn": "Midt-Norge",
        "kulturvernstatus": null,
        "askeladdenid": null,
        "eierstatus2": "Eier (helt eller delvis)"
      },
      "geometry": {
        "type": "Point",
        "coordinates": [11.293130685436918, 64.786476634933067]
      }
    },
    {
      "type": "Feature",
      "properties": {
        "id": 1444,
        "kompleksid": "50113",
        "kompleksnavn": "Eidshaug",
        "driftsenhetsnavn": "Midt-Norge",
        "kulturvernstatus": null,
        "askeladdenid": null,
        "eierstatus2": "Historisk (avhendet)"
      },
      "geometry": {
        "type": "Point",
        "coordinates": [11.462064225529021, 64.931983788535703]
      }
    },
    {
      "type": "Feature",
      "properties": {
        "id": 1445,
        "kompleksid": "50114",
        "kompleksnavn": "Gjerdingen",
        "driftsenhetsnavn": "Midt-Norge",
        "kulturvernstatus": null,
        "askeladdenid": null,
        "eierstatus2": "Historisk (avhendet)"
      },
      "geometry": {
        "type": "Point",
        "coordinates": [11.450374136136903, 64.945201320611574]
      }
    },
    {
      "type": "Feature",
      "properties": {
        "id": 1446,
        "kompleksid": "50115",
        "kompleksnavn": "Landskjærbukta",
        "driftsenhetsnavn": "Midt-Norge",
        "kulturvernstatus": null,
        "askeladdenid": null,
        "eierstatus2": "Historisk (avhendet)"
      },
      "geometry": {
        "type": "Point",
        "coordinates": [11.72539601056795, 64.985417524580185]
      }
    },
    {
      "type": "Feature",
      "properties": {
        "id": 1447,
        "kompleksid": "50116",
        "kompleksnavn": "Ottersøya",
        "driftsenhetsnavn": "Midt-Norge",
        "kulturvernstatus": null,
        "askeladdenid": null,
        "eierstatus2": "Historisk (avhendet)"
      },
      "geometry": {
        "type": "Point",
        "coordinates": [11.28398726996295, 64.859713764747866]
      }
    },
    {
      "type": "Feature",
      "properties": {
        "id": 1448,
        "kompleksid": "50117",
        "kompleksnavn": "Skagestranda",
        "driftsenhetsnavn": "Midt-Norge",
        "kulturvernstatus": null,
        "askeladdenid": null,
        "eierstatus2": "Historisk (avhendet)"
      },
      "geometry": {
        "type": "Point",
        "coordinates": [11.576097393165725, 64.82337168305591]
      }
    },
    {
      "type": "Feature",
      "properties": {
        "id": 1449,
        "kompleksid": "50118",
        "kompleksnavn": "Borgan",
        "driftsenhetsnavn": "Midt-Norge",
        "kulturvernstatus": null,
        "askeladdenid": null,
        "eierstatus2": "Eier (helt eller delvis)"
      },
      "geometry": {
        "type": "Point",
        "coordinates": [10.907127912999613, 64.966030436028745]
      }
    },
    {
      "type": "Feature",
      "properties": {
        "id": 1450,
        "kompleksid": "50119",
        "kompleksnavn": "Nordøyan",
        "driftsenhetsnavn": "Midt-Norge",
        "kulturvernstatus": "Forskriftsfredet kml",
        "askeladdenid": "220646",
        "eierstatus2": "Eier (helt eller delvis)"
      },
      "geometry": {
        "type": "Point",
        "coordinates": [10.547583849526253, 64.805723019407068]
      }
    },
    {
      "type": "Feature",
      "properties": {
        "id": 1451,
        "kompleksid": "50120",
        "kompleksnavn": "Valøy",
        "driftsenhetsnavn": "Midt-Norge",
        "kulturvernstatus": null,
        "askeladdenid": null,
        "eierstatus2": "Eier (helt eller delvis)"
      },
      "geometry": {
        "type": "Point",
        "coordinates": [10.781255081061571, 64.91538833740573]
      }
    },
    {
      "type": "Feature",
      "properties": {
        "id": 1452,
        "kompleksid": "50121",
        "kompleksnavn": "Vansøyvågen",
        "driftsenhetsnavn": "Midt-Norge",
        "kulturvernstatus": null,
        "askeladdenid": null,
        "eierstatus2": "Eier (helt eller delvis)"
      },
      "geometry": {
        "type": "Point",
        "coordinates": [10.626504016471973, 64.844094927577089]
      }
    },
    {
      "type": "Feature",
      "properties": {
        "id": 1454,
        "kompleksid": "50123",
        "kompleksnavn": "Vik",
        "driftsenhetsnavn": "Midt-Norge",
        "kulturvernstatus": null,
        "askeladdenid": null,
        "eierstatus2": "Historisk (avhendet)"
      },
      "geometry": {
        "type": "Point",
        "coordinates": [10.757925801443786, 64.46243467116912]
      }
    },
    {
      "type": "Feature",
      "properties": {
        "id": 1455,
        "kompleksid": "50124",
        "kompleksnavn": "Skei",
        "driftsenhetsnavn": "Midt-Norge",
        "kulturvernstatus": null,
        "askeladdenid": null,
        "eierstatus2": "Historisk (avhendet)"
      },
      "geometry": {
        "type": "Point",
        "coordinates": [11.736921996643977, 65.086671778492317]
      }
    },
    {
      "type": "Feature",
      "properties": {
        "id": 1456,
        "kompleksid": "50125",
        "kompleksnavn": "Solsem",
        "driftsenhetsnavn": "Midt-Norge",
        "kulturvernstatus": null,
        "askeladdenid": null,
        "eierstatus2": "Historisk (avhendet)"
      },
      "geometry": {
        "type": "Point",
        "coordinates": [11.54660572385643, 65.04671244087136]
      }
    },
    {
      "type": "Feature",
      "properties": {
        "id": 1457,
        "kompleksid": "50126",
        "kompleksnavn": "Stein",
        "driftsenhetsnavn": "Midt-Norge",
        "kulturvernstatus": null,
        "askeladdenid": null,
        "eierstatus2": "Historisk (avhendet)"
      },
      "geometry": {
        "type": "Point",
        "coordinates": [11.56941108847829, 65.096340396431785]
      }
    },
    {
      "type": "Feature",
      "properties": {
        "id": 1458,
        "kompleksid": "50127",
        "kompleksnavn": "Lund",
        "driftsenhetsnavn": "Midt-Norge",
        "kulturvernstatus": null,
        "askeladdenid": null,
        "eierstatus2": "Historisk (avhendet)"
      },
      "geometry": {
        "type": "Point",
        "coordinates": [11.603213424205647, 64.770988438679282]
      }
    },
    {
      "type": "Feature",
      "properties": {
        "id": 1459,
        "kompleksid": "50128",
        "kompleksnavn": "Risøyvalen Bondøy",
        "driftsenhetsnavn": "Midt-Norge",
        "kulturvernstatus": null,
        "askeladdenid": null,
        "eierstatus2": "Historisk (avhendet)"
      },
      "geometry": {
        "type": "Point",
        "coordinates": [10.709697456150069, 64.821643375051266]
      }
    },
    {
      "type": "Feature",
      "properties": {
        "id": 1461,
        "kompleksid": "50130",
        "kompleksnavn": "Sørgjeslingan",
        "driftsenhetsnavn": "Midt-Norge",
        "kulturvernstatus": "Kulturmiljøfredning",
        "askeladdenid": null,
        "eierstatus2": "Eier (helt eller delvis)"
      },
      "geometry": {
        "type": "Point",
        "coordinates": [10.772025460187818, 64.741900177427837]
      }
    },
    {
      "type": "Feature",
      "properties": {
        "id": 1462,
        "kompleksid": "50131",
        "kompleksnavn": "Abelvær",
        "driftsenhetsnavn": "Midt-Norge",
        "kulturvernstatus": null,
        "askeladdenid": null,
        "eierstatus2": "Eier (helt eller delvis)"
      },
      "geometry": {
        "type": "Point",
        "coordinates": [11.189543488261739, 64.735133478070352]
      }
    },
    {
      "type": "Feature",
      "properties": {
        "id": 1463,
        "kompleksid": "50132",
        "kompleksnavn": "Måneset",
        "driftsenhetsnavn": "Midt-Norge",
        "kulturvernstatus": null,
        "askeladdenid": null,
        "eierstatus2": "Eier (helt eller delvis)"
      },
      "geometry": {
        "type": "Point",
        "coordinates": [11.477295967875278, 64.936675711890615]
      }
    },
    {
      "type": "Feature",
      "properties": {
        "id": 1464,
        "kompleksid": "50133",
        "kompleksnavn": "Flerengstrand",
        "driftsenhetsnavn": "Midt-Norge",
        "kulturvernstatus": null,
        "askeladdenid": null,
        "eierstatus2": "Historisk (avhendet)"
      },
      "geometry": {
        "type": "Point",
        "coordinates": [11.248437740186727, 64.917456224655822]
      }
    },
    {
      "type": "Feature",
      "properties": {
        "id": 1465,
        "kompleksid": "50134",
        "kompleksnavn": "Dyrvik",
        "driftsenhetsnavn": "Midt-Norge",
        "kulturvernstatus": null,
        "askeladdenid": null,
        "eierstatus2": "Eier (helt eller delvis)"
      },
      "geometry": {
        "type": "Point",
        "coordinates": [8.825736927222945, 63.75869588320726]
      }
    },
    {
      "type": "Feature",
      "properties": {
        "id": 1466,
        "kompleksid": "50135",
        "kompleksnavn": "Nesset",
        "driftsenhetsnavn": "Midt-Norge",
        "kulturvernstatus": null,
        "askeladdenid": null,
        "eierstatus2": "Historisk (avhendet)"
      },
      "geometry": {
        "type": "Point",
        "coordinates": [8.82023619804311, 63.768818050075133]
      }
    },
    {
      "type": "Feature",
      "properties": {
        "id": 1467,
        "kompleksid": "50136",
        "kompleksnavn": "Sistranda",
        "driftsenhetsnavn": "Midt-Norge",
        "kulturvernstatus": null,
        "askeladdenid": null,
        "eierstatus2": "Eier (helt eller delvis)"
      },
      "geometry": {
        "type": "Point",
        "coordinates": [8.836787191331046, 63.736626997979293]
      }
    },
    {
      "type": "Feature",
      "properties": {
        "id": 1468,
        "kompleksid": "50137",
        "kompleksnavn": "Lille Kjerringvåg",
        "driftsenhetsnavn": "Midt-Norge",
        "kulturvernstatus": null,
        "askeladdenid": null,
        "eierstatus2": "Historisk (avhendet)"
      },
      "geometry": {
        "type": "Point",
        "coordinates": [8.758470405181486, 63.650098442250346]
      }
    },
    {
      "type": "Feature",
      "properties": {
        "id": 1469,
        "kompleksid": "50138",
        "kompleksnavn": "Flatholmsundet",
        "driftsenhetsnavn": "Midt-Norge",
        "kulturvernstatus": null,
        "askeladdenid": null,
        "eierstatus2": "Eier (helt eller delvis)"
      },
      "geometry": {
        "type": "Point",
        "coordinates": [9.990408431916036, 64.036116671472683]
      }
    },
    {
      "type": "Feature",
      "properties": {
        "id": 1470,
        "kompleksid": "50139",
        "kompleksnavn": "Sør-Leksa",
        "driftsenhetsnavn": "Midt-Norge",
        "kulturvernstatus": null,
        "askeladdenid": null,
        "eierstatus2": "Historisk (avhendet)"
      },
      "geometry": {
        "type": "Point",
        "coordinates": [9.32429493255672, 63.569684439140239]
      }
    },
    {
      "type": "Feature",
      "properties": {
        "id": 1471,
        "kompleksid": "50140",
        "kompleksnavn": "Dypfestvågen",
        "driftsenhetsnavn": "Midt-Norge",
        "kulturvernstatus": null,
        "askeladdenid": null,
        "eierstatus2": "Historisk (avhendet)"
      },
      "geometry": {
        "type": "Point",
        "coordinates": [9.576968433272073, 63.781369369286516]
      }
    },
    {
      "type": "Feature",
      "properties": {
        "id": 1472,
        "kompleksid": "50141",
        "kompleksnavn": "Høybakken",
        "driftsenhetsnavn": "Midt-Norge",
        "kulturvernstatus": null,
        "askeladdenid": null,
        "eierstatus2": "Eier (helt eller delvis)"
      },
      "geometry": {
        "type": "Point",
        "coordinates": [9.878731883972646, 63.733215770446719]
      }
    },
    {
      "type": "Feature",
      "properties": {
        "id": 1473,
        "kompleksid": "50142",
        "kompleksnavn": "Bremnesvågen",
        "driftsenhetsnavn": "Midt-Norge",
        "kulturvernstatus": null,
        "askeladdenid": null,
        "eierstatus2": "Eier (helt eller delvis)"
      },
      "geometry": {
        "type": "Point",
        "coordinates": [8.644334644126916, 63.737269917444834]
      }
    },
    {
      "type": "Feature",
      "properties": {
        "id": 1474,
        "kompleksid": "50143",
        "kompleksnavn": "Halten",
        "driftsenhetsnavn": "Midt-Norge",
        "kulturvernstatus": null,
        "askeladdenid": null,
        "eierstatus2": "Eier (helt eller delvis)"
      },
      "geometry": {
        "type": "Point",
        "coordinates": [9.402838177530359, 64.174179103520714]
      }
    },
    {
      "type": "Feature",
      "properties": {
        "id": 1475,
        "kompleksid": "50144",
        "kompleksnavn": "Hammervågen",
        "driftsenhetsnavn": "Midt-Norge",
        "kulturvernstatus": null,
        "askeladdenid": null,
        "eierstatus2": "Historisk (avhendet)"
      },
      "geometry": {
        "type": "Point",
        "coordinates": [8.824787453967145, 63.699982785875292]
      }
    },
    {
      "type": "Feature",
      "properties": {
        "id": 1476,
        "kompleksid": "50145",
        "kompleksnavn": "Inntian",
        "driftsenhetsnavn": "Midt-Norge",
        "kulturvernstatus": null,
        "askeladdenid": null,
        "eierstatus2": "Historisk (avhendet)"
      },
      "geometry": {
        "type": "Point",
        "coordinates": [8.876618559451142, 63.719596473435807]
      }
    },
    {
      "type": "Feature",
      "properties": {
        "id": 1477,
        "kompleksid": "50146",
        "kompleksnavn": "Kya",
        "driftsenhetsnavn": "Midt-Norge",
        "kulturvernstatus": null,
        "askeladdenid": null,
        "eierstatus2": "Historisk (avhendet)"
      },
      "geometry": {
        "type": "Point",
        "coordinates": [8.314101696599733, 63.772612804551507]
      }
    },
    {
      "type": "Feature",
      "properties": {
        "id": 1478,
        "kompleksid": "50147",
        "kompleksnavn": "Måøy-Gårdsøy/Mausund",
        "driftsenhetsnavn": "Midt-Norge",
        "kulturvernstatus": null,
        "askeladdenid": null,
        "eierstatus2": "Eier (helt eller delvis)"
      },
      "geometry": {
        "type": "Point",
        "coordinates": [8.665373069622591, 63.868859001896034]
      }
    },
    {
      "type": "Feature",
      "properties": {
        "id": 1479,
        "kompleksid": "50148",
        "kompleksnavn": "Sandvik",
        "driftsenhetsnavn": "Midt-Norge",
        "kulturvernstatus": null,
        "askeladdenid": null,
        "eierstatus2": "Historisk (avhendet)"
      },
      "geometry": {
        "type": "Point",
        "coordinates": [8.678278344094446, 63.753395181423855]
      }
    },
    {
      "type": "Feature",
      "properties": {
        "id": 1480,
        "kompleksid": "50149",
        "kompleksnavn": "Sula",
        "driftsenhetsnavn": "Midt-Norge",
        "kulturvernstatus": null,
        "askeladdenid": null,
        "eierstatus2": "Eier (helt eller delvis)"
      },
      "geometry": {
        "type": "Point",
        "coordinates": [8.46008050010775, 63.846649876499235]
      }
    },
    {
      "type": "Feature",
      "properties": {
        "id": 1481,
        "kompleksid": "50150",
        "kompleksnavn": "Sætervågen",
        "driftsenhetsnavn": "Midt-Norge",
        "kulturvernstatus": null,
        "askeladdenid": null,
        "eierstatus2": "Eier (helt eller delvis)"
      },
      "geometry": {
        "type": "Point",
        "coordinates": [8.680351134520016, 63.799485889781216]
      }
    },
    {
      "type": "Feature",
      "properties": {
        "id": 1482,
        "kompleksid": "50151",
        "kompleksnavn": "Titran",
        "driftsenhetsnavn": "Midt-Norge",
        "kulturvernstatus": null,
        "askeladdenid": null,
        "eierstatus2": "Historisk (avhendet)"
      },
      "geometry": {
        "type": "Point",
        "coordinates": [8.30864541026421, 63.666435746563948]
      }
    },
    {
      "type": "Feature",
      "properties": {
        "id": 1483,
        "kompleksid": "50152",
        "kompleksnavn": "Ørnflaugvågen",
        "driftsenhetsnavn": "Midt-Norge",
        "kulturvernstatus": null,
        "askeladdenid": null,
        "eierstatus2": "Historisk (avhendet)"
      },
      "geometry": {
        "type": "Point",
        "coordinates": [8.64530748330073, 63.790452829675189]
      }
    },
    {
      "type": "Feature",
      "properties": {
        "id": 1484,
        "kompleksid": "50153",
        "kompleksnavn": "Helsøysund",
        "driftsenhetsnavn": "Midt-Norge",
        "kulturvernstatus": null,
        "askeladdenid": null,
        "eierstatus2": "Eier (helt eller delvis)"
      },
      "geometry": {
        "type": "Point",
        "coordinates": [8.389153586642365, 63.53391538571271]
      }
    },
    {
      "type": "Feature",
      "properties": {
        "id": 1485,
        "kompleksid": "50154",
        "kompleksnavn": "Kjerringvåg",
        "driftsenhetsnavn": "Midt-Norge",
        "kulturvernstatus": null,
        "askeladdenid": null,
        "eierstatus2": "Eier (helt eller delvis)"
      },
      "geometry": {
        "type": "Point",
        "coordinates": [8.779103559914937, 63.654654957574081]
      }
    },
    {
      "type": "Feature",
      "properties": {
        "id": 1486,
        "kompleksid": "50155",
        "kompleksnavn": "Strand",
        "driftsenhetsnavn": "Midt-Norge",
        "kulturvernstatus": null,
        "askeladdenid": null,
        "eierstatus2": "Eier (helt eller delvis)"
      },
      "geometry": {
        "type": "Point",
        "coordinates": [10.448297632149746, 64.321279130031996]
      }
    },
    {
      "type": "Feature",
      "properties": {
        "id": 1487,
        "kompleksid": "50156",
        "kompleksnavn": "Sætervika",
        "driftsenhetsnavn": "Midt-Norge",
        "kulturvernstatus": null,
        "askeladdenid": null,
        "eierstatus2": "Historisk (avhendet)"
      },
      "geometry": {
        "type": "Point",
        "coordinates": [10.482828469229203, 64.395241863231519]
      }
    },
    {
      "type": "Feature",
      "properties": {
        "id": 1488,
        "kompleksid": "50157",
        "kompleksnavn": "Vingsand",
        "driftsenhetsnavn": "Midt-Norge",
        "kulturvernstatus": null,
        "askeladdenid": null,
        "eierstatus2": "Historisk (avhendet)"
      },
      "geometry": {
        "type": "Point",
        "coordinates": [10.460071984338281, 64.34907701576698]
      }
    },
    {
      "type": "Feature",
      "properties": {
        "id": 1489,
        "kompleksid": "50158",
        "kompleksnavn": "Yttervågen",
        "driftsenhetsnavn": "Midt-Norge",
        "kulturvernstatus": null,
        "askeladdenid": null,
        "eierstatus2": "Eier (helt eller delvis)"
      },
      "geometry": {
        "type": "Point",
        "coordinates": [10.295974514795091, 64.294201781239835]
      }
    },
    {
      "type": "Feature",
      "properties": {
        "id": 1491,
        "kompleksid": "50160",
        "kompleksnavn": "Røberg",
        "driftsenhetsnavn": "Midt-Norge",
        "kulturvernstatus": "Omtalt i LVP, men uten vern",
        "askeladdenid": null,
        "eierstatus2": "Eier (helt eller delvis)"
      },
      "geometry": {
        "type": "Point",
        "coordinates": [9.990905995166516, 63.4867898167237]
      }
    },
    {
      "type": "Feature",
      "properties": {
        "id": 1492,
        "kompleksid": "50161",
        "kompleksnavn": "Råkvåg",
        "driftsenhetsnavn": "Midt-Norge",
        "kulturvernstatus": null,
        "askeladdenid": null,
        "eierstatus2": "Historisk (avhendet)"
      },
      "geometry": {
        "type": "Point",
        "coordinates": [10.068305548050118, 63.763466443099247]
      }
    },
    {
      "type": "Feature",
      "properties": {
        "id": 1493,
        "kompleksid": "50162",
        "kompleksnavn": "Sivertsvik",
        "driftsenhetsnavn": "Midt-Norge",
        "kulturvernstatus": null,
        "askeladdenid": null,
        "eierstatus2": "Eier (helt eller delvis)"
      },
      "geometry": {
        "type": "Point",
        "coordinates": [9.818821015997262, 63.620132546883248]
      }
    },
    {
      "type": "Feature",
      "properties": {
        "id": 1494,
        "kompleksid": "50163",
        "kompleksnavn": "Kiran",
        "driftsenhetsnavn": "Midt-Norge",
        "kulturvernstatus": null,
        "askeladdenid": null,
        "eierstatus2": "Historisk (avhendet)"
      },
      "geometry": {
        "type": "Point",
        "coordinates": [10.122542964307518, 64.124463088763534]
      }
    },
    {
      "type": "Feature",
      "properties": {
        "id": 1495,
        "kompleksid": "50164",
        "kompleksnavn": "Kråkøysundet",
        "driftsenhetsnavn": "Midt-Norge",
        "kulturvernstatus": null,
        "askeladdenid": null,
        "eierstatus2": "Eier (helt eller delvis)"
      },
      "geometry": {
        "type": "Point",
        "coordinates": [10.157945336740834, 64.147136037156798]
      }
    },
    {
      "type": "Feature",
      "properties": {
        "id": 1496,
        "kompleksid": "50165",
        "kompleksnavn": "Roan",
        "driftsenhetsnavn": "Midt-Norge",
        "kulturvernstatus": null,
        "askeladdenid": null,
        "eierstatus2": "Eier (helt eller delvis)"
      },
      "geometry": {
        "type": "Point",
        "coordinates": [10.213344184682033, 64.177653677238979]
      }
    },
    {
      "type": "Feature",
      "properties": {
        "id": 1497,
        "kompleksid": "50166",
        "kompleksnavn": "Brekstad",
        "driftsenhetsnavn": "Midt-Norge",
        "kulturvernstatus": null,
        "askeladdenid": null,
        "eierstatus2": "Historisk (avhendet)"
      },
      "geometry": {
        "type": "Point",
        "coordinates": [9.672576772452446, 63.686415746007846]
      }
    },
    {
      "type": "Feature",
      "properties": {
        "id": 1498,
        "kompleksid": "50167",
        "kompleksnavn": "Garten",
        "driftsenhetsnavn": "Midt-Norge",
        "kulturvernstatus": null,
        "askeladdenid": null,
        "eierstatus2": "Historisk (avhendet)"
      },
      "geometry": {
        "type": "Point",
        "coordinates": [9.517874627764542, 63.645459446637396]
      }
    },
    {
      "type": "Feature",
      "properties": {
        "id": 1499,
        "kompleksid": "50168",
        "kompleksnavn": "Kråkvåg",
        "driftsenhetsnavn": "Midt-Norge",
        "kulturvernstatus": null,
        "askeladdenid": null,
        "eierstatus2": "Historisk (avhendet)"
      },
      "geometry": {
        "type": "Point",
        "coordinates": [9.333393749319296, 63.63847455144829]
      }
    },
    {
      "type": "Feature",
      "properties": {
        "id": 1500,
        "kompleksid": "50169",
        "kompleksnavn": "Uthaug",
        "driftsenhetsnavn": "Midt-Norge",
        "kulturvernstatus": null,
        "askeladdenid": null,
        "eierstatus2": "Eier (helt eller delvis)"
      },
      "geometry": {
        "type": "Point",
        "coordinates": [9.586086734445006, 63.726185215933668]
      }
    },
    {
      "type": "Feature",
      "properties": {
        "id": 1501,
        "kompleksid": "50170",
        "kompleksnavn": "Linesøya",
        "driftsenhetsnavn": "Midt-Norge",
        "kulturvernstatus": null,
        "askeladdenid": null,
        "eierstatus2": "Historisk (avhendet)"
      },
      "geometry": {
        "type": "Point",
        "coordinates": [9.883814835110769, 64.021532385933085]
      }
    },
    {
      "type": "Feature",
      "properties": {
        "id": 1502,
        "kompleksid": "50171",
        "kompleksnavn": "Ratvik",
        "driftsenhetsnavn": "Midt-Norge",
        "kulturvernstatus": null,
        "askeladdenid": null,
        "eierstatus2": "Historisk (avhendet)"
      },
      "geometry": {
        "type": "Point",
        "coordinates": [9.995539846336451, 63.977794744498993]
      }
    },
    {
      "type": "Feature",
      "properties": {
        "id": 1503,
        "kompleksid": "50172",
        "kompleksnavn": "Aursøyane",
        "driftsenhetsnavn": "Midt-Norge",
        "kulturvernstatus": null,
        "askeladdenid": null,
        "eierstatus2": "Eier (helt eller delvis)"
      },
      "geometry": {
        "type": "Point",
        "coordinates": [8.634851603453226, 63.871871060596604]
      }
    },
    {
      "type": "Feature",
      "properties": {
        "id": 1504,
        "kompleksid": "50173",
        "kompleksnavn": "Gjæsingen",
        "driftsenhetsnavn": "Midt-Norge",
        "kulturvernstatus": null,
        "askeladdenid": null,
        "eierstatus2": "Historisk (avhendet)"
      },
      "geometry": {
        "type": "Point",
        "coordinates": [8.90554528985446, 63.931028640012343]
      }
    },
    {
      "type": "Feature",
      "properties": {
        "id": 1506,
        "kompleksid": "50175",
        "kompleksnavn": "Sauøya",
        "driftsenhetsnavn": "Midt-Norge",
        "kulturvernstatus": null,
        "askeladdenid": null,
        "eierstatus2": "Historisk (avhendet)"
      },
      "geometry": {
        "type": "Point",
        "coordinates": [9.177977259410133, 63.997854850822605]
      }
    },
    {
      "type": "Feature",
      "properties": {
        "id": 1507,
        "kompleksid": "50176",
        "kompleksnavn": "Balsnesaunet",
        "driftsenhetsnavn": "Midt-Norge",
        "kulturvernstatus": null,
        "askeladdenid": null,
        "eierstatus2": "Historisk (avhendet)"
      },
      "geometry": {
        "type": "Point",
        "coordinates": [8.78997871143233, 63.481494810411299]
      }
    },
    {
      "type": "Feature",
      "properties": {
        "id": 1508,
        "kompleksid": "50177",
        "kompleksnavn": "Hepsøy",
        "driftsenhetsnavn": "Midt-Norge",
        "kulturvernstatus": null,
        "askeladdenid": null,
        "eierstatus2": "Historisk (avhendet)"
      },
      "geometry": {
        "type": "Point",
        "coordinates": [10.374822932060395, 64.319451994929622]
      }
    },
    {
      "type": "Feature",
      "properties": {
        "id": 1509,
        "kompleksid": "50178",
        "kompleksnavn": "Sandviksberget",
        "driftsenhetsnavn": "Midt-Norge",
        "kulturvernstatus": null,
        "askeladdenid": null,
        "eierstatus2": "Historisk (avhendet)"
      },
      "geometry": {
        "type": "Point",
        "coordinates": [10.445696577283259, 64.328484946160188]
      }
    },
    {
      "type": "Feature",
      "properties": {
        "id": 1510,
        "kompleksid": "50179",
        "kompleksnavn": "Beian",
        "driftsenhetsnavn": "Midt-Norge",
        "kulturvernstatus": null,
        "askeladdenid": null,
        "eierstatus2": "Historisk (avhendet)"
      },
      "geometry": {
        "type": "Point",
        "coordinates": [9.561043436634288, 63.652210243403545]
      }
    },
    {
      "type": "Feature",
      "properties": {
        "id": 1511,
        "kompleksid": "50180",
        "kompleksnavn": "Lysøysundet",
        "driftsenhetsnavn": "Midt-Norge",
        "kulturvernstatus": null,
        "askeladdenid": null,
        "eierstatus2": "Historisk (avhendet)"
      },
      "geometry": {
        "type": "Point",
        "coordinates": [9.861623249214835, 63.885504523379346]
      }
    },
    {
      "type": "Feature",
      "properties": {
        "id": 1512,
        "kompleksid": "50181",
        "kompleksnavn": "Ansnes",
        "driftsenhetsnavn": "Midt-Norge",
        "kulturvernstatus": null,
        "askeladdenid": null,
        "eierstatus2": "Historisk (avhendet)"
      },
      "geometry": {
        "type": "Point",
        "coordinates": [8.996967360344925, 63.638123095511901]
      }
    },
    {
      "type": "Feature",
      "properties": {
        "id": 1513,
        "kompleksid": "50182",
        "kompleksnavn": "Sørburøya",
        "driftsenhetsnavn": "Midt-Norge",
        "kulturvernstatus": null,
        "askeladdenid": null,
        "eierstatus2": "Eier (helt eller delvis)"
      },
      "geometry": {
        "type": "Point",
        "coordinates": [9.071397865261677, 63.978753358354311]
      }
    },
    {
      "type": "Feature",
      "properties": {
        "id": 1514,
        "kompleksid": "50183",
        "kompleksnavn": "Børøysund",
        "driftsenhetsnavn": "Midt-Norge",
        "kulturvernstatus": null,
        "askeladdenid": null,
        "eierstatus2": "Eier (helt eller delvis)"
      },
      "geometry": {
        "type": "Point",
        "coordinates": [9.195559421968603, 63.571910937470143]
      }
    },
    {
      "type": "Feature",
      "properties": {
        "id": 1515,
        "kompleksid": "50184",
        "kompleksnavn": "Kuøya",
        "driftsenhetsnavn": "Midt-Norge",
        "kulturvernstatus": null,
        "askeladdenid": null,
        "eierstatus2": "Eier (helt eller delvis)"
      },
      "geometry": {
        "type": "Point",
        "coordinates": [9.028420580956976, 63.650495613732637]
      }
    },
    {
      "type": "Feature",
      "properties": {
        "id": 1516,
        "kompleksid": "50185",
        "kompleksnavn": "Allmenningen/Strømsvågen",
        "driftsenhetsnavn": "Midt-Norge",
        "kulturvernstatus": null,
        "askeladdenid": null,
        "eierstatus2": "Historisk (avhendet)"
      },
      "geometry": {
        "type": "Point",
        "coordinates": [10.068338299217853, 64.19776105834886]
      }
    },
    {
      "type": "Feature",
      "properties": {
        "id": 1517,
        "kompleksid": "50186",
        "kompleksnavn": "Bodø",
        "driftsenhetsnavn": "Nordland",
        "kulturvernstatus": null,
        "askeladdenid": null,
        "eierstatus2": "Eier (helt eller delvis)"
      },
      "geometry": {
        "type": "Point",
        "coordinates": [14.369962902209855, 67.283928002590542]
      }
    },
    {
      "type": "Feature",
      "properties": {
        "id": 1518,
        "kompleksid": "50187",
        "kompleksnavn": "Andenes",
        "driftsenhetsnavn": "Nordland",
        "kulturvernstatus": null,
        "askeladdenid": null,
        "eierstatus2": "Eier (helt eller delvis)"
      },
      "geometry": {
        "type": "Point",
        "coordinates": [16.127229658190391, 69.325826305755228]
      }
    },
    {
      "type": "Feature",
      "properties": {
        "id": 1519,
        "kompleksid": "50188",
        "kompleksnavn": "Melbu",
        "driftsenhetsnavn": "Nordland",
        "kulturvernstatus": null,
        "askeladdenid": null,
        "eierstatus2": "Eier (helt eller delvis)"
      },
      "geometry": {
        "type": "Point",
        "coordinates": [14.807669886928551, 68.497964233140792]
      }
    },
    {
      "type": "Feature",
      "properties": {
        "id": 1520,
        "kompleksid": "50189",
        "kompleksnavn": "Nesvågen",
        "driftsenhetsnavn": "Nordland",
        "kulturvernstatus": null,
        "askeladdenid": null,
        "eierstatus2": "Eier (helt eller delvis)"
      },
      "geometry": {
        "type": "Point",
        "coordinates": [12.140746971834954, 67.526007876931828]
      }
    },
    {
      "type": "Feature",
      "properties": {
        "id": 1521,
        "kompleksid": "50190",
        "kompleksnavn": "Røst",
        "driftsenhetsnavn": "Nordland",
        "kulturvernstatus": null,
        "askeladdenid": null,
        "eierstatus2": "Eier (helt eller delvis)"
      },
      "geometry": {
        "type": "Point",
        "coordinates": [12.072510890571735, 67.506507684524777]
      }
    },
    {
      "type": "Feature",
      "properties": {
        "id": 1522,
        "kompleksid": "50191",
        "kompleksnavn": "Ballstad",
        "driftsenhetsnavn": "Nordland",
        "kulturvernstatus": null,
        "askeladdenid": null,
        "eierstatus2": "Eier (helt eller delvis)"
      },
      "geometry": {
        "type": "Point",
        "coordinates": [13.5450494857138, 68.069220215164719]
      }
    },
    {
      "type": "Feature",
      "properties": {
        "id": 1523,
        "kompleksid": "50192",
        "kompleksnavn": "Stamsund",
        "driftsenhetsnavn": "Nordland",
        "kulturvernstatus": null,
        "askeladdenid": null,
        "eierstatus2": "Eier (helt eller delvis)"
      },
      "geometry": {
        "type": "Point",
        "coordinates": [13.849099780600453, 68.122454497848025]
      }
    },
    {
      "type": "Feature",
      "properties": {
        "id": 1524,
        "kompleksid": "50193",
        "kompleksnavn": "Måstad",
        "driftsenhetsnavn": "Nordland",
        "kulturvernstatus": null,
        "askeladdenid": null,
        "eierstatus2": "Historisk (avhendet)"
      },
      "geometry": {
        "type": "Point",
        "coordinates": [12.596988867469474, 67.643284668169358]
      }
    },
    {
      "type": "Feature",
      "properties": {
        "id": 1525,
        "kompleksid": "50194",
        "kompleksnavn": "Teisthammeren",
        "driftsenhetsnavn": "Nordland",
        "kulturvernstatus": null,
        "askeladdenid": null,
        "eierstatus2": "Historisk (avhendet)"
      },
      "geometry": {
        "type": "Point",
        "coordinates": [12.715202044991548, 67.686650214447681]
      }
    },
    {
      "type": "Feature",
      "properties": {
        "id": 1526,
        "kompleksid": "50195",
        "kompleksnavn": "Henningsvær",
        "driftsenhetsnavn": "Nordland",
        "kulturvernstatus": "Kulturmiljøfredning",
        "askeladdenid": null,
        "eierstatus2": "Eier (helt eller delvis)"
      },
      "geometry": {
        "type": "Point",
        "coordinates": [14.204199144946344, 68.153299133947215]
      }
    },
    {
      "type": "Feature",
      "properties": {
        "id": 1527,
        "kompleksid": "50196",
        "kompleksnavn": "Sommarøy-Myre",
        "driftsenhetsnavn": "Nordland",
        "kulturvernstatus": null,
        "askeladdenid": null,
        "eierstatus2": "Eier (helt eller delvis)"
      },
      "geometry": {
        "type": "Point",
        "coordinates": [15.066977263287921, 68.912858641894644]
      }
    },
    {
      "type": "Feature",
      "properties": {
        "id": 1528,
        "kompleksid": "50197",
        "kompleksnavn": "Bleik",
        "driftsenhetsnavn": "Nordland",
        "kulturvernstatus": null,
        "askeladdenid": null,
        "eierstatus2": "Eier (helt eller delvis)"
      },
      "geometry": {
        "type": "Point",
        "coordinates": [15.946270287230201, 69.274581195204917]
      }
    },
    {
      "type": "Feature",
      "properties": {
        "id": 1529,
        "kompleksid": "50198",
        "kompleksnavn": "Nordmela",
        "driftsenhetsnavn": "Nordland",
        "kulturvernstatus": null,
        "askeladdenid": null,
        "eierstatus2": "Eier (helt eller delvis)"
      },
      "geometry": {
        "type": "Point",
        "coordinates": [15.677773783860614, 69.138117502377483]
      }
    },
    {
      "type": "Feature",
      "properties": {
        "id": 1530,
        "kompleksid": "50199",
        "kompleksnavn": "Steinesjøen",
        "driftsenhetsnavn": "Nordland",
        "kulturvernstatus": null,
        "askeladdenid": null,
        "eierstatus2": "Eier (helt eller delvis)"
      },
      "geometry": {
        "type": "Point",
        "coordinates": [14.456762066116973, 68.606173402701501]
      }
    },
    {
      "type": "Feature",
      "properties": {
        "id": 1531,
        "kompleksid": "50200",
        "kompleksnavn": "Napp",
        "driftsenhetsnavn": "Nordland",
        "kulturvernstatus": null,
        "askeladdenid": null,
        "eierstatus2": "Eier (helt eller delvis)"
      },
      "geometry": {
        "type": "Point",
        "coordinates": [13.433454240223758, 68.131593195306209]
      }
    },
    {
      "type": "Feature",
      "properties": {
        "id": 1532,
        "kompleksid": "50201",
        "kompleksnavn": "Ramberg",
        "driftsenhetsnavn": "Nordland",
        "kulturvernstatus": null,
        "askeladdenid": null,
        "eierstatus2": "Eier (helt eller delvis)"
      },
      "geometry": {
        "type": "Point",
        "coordinates": [13.223050062049383, 68.088495121731611]
      }
    },
    {
      "type": "Feature",
      "properties": {
        "id": 1533,
        "kompleksid": "50202",
        "kompleksnavn": "Moskenesvågen",
        "driftsenhetsnavn": "Nordland",
        "kulturvernstatus": null,
        "askeladdenid": null,
        "eierstatus2": "Eier (helt eller delvis)"
      },
      "geometry": {
        "type": "Point",
        "coordinates": [13.041928264251331, 67.898120868957534]
      }
    },
    {
      "type": "Feature",
      "properties": {
        "id": 1534,
        "kompleksid": "50203",
        "kompleksnavn": "Reine",
        "driftsenhetsnavn": "Nordland",
        "kulturvernstatus": null,
        "askeladdenid": null,
        "eierstatus2": "Eier (helt eller delvis)"
      },
      "geometry": {
        "type": "Point",
        "coordinates": [13.082050870951942, 67.935105735993531]
      }
    },
    {
      "type": "Feature",
      "properties": {
        "id": 1535,
        "kompleksid": "50204",
        "kompleksnavn": "Husøy",
        "driftsenhetsnavn": "Nordland",
        "kulturvernstatus": null,
        "askeladdenid": null,
        "eierstatus2": "Eier (helt eller delvis)"
      },
      "geometry": {
        "type": "Point",
        "coordinates": [12.104745835172016, 66.502772875963217]
      }
    },
    {
      "type": "Feature",
      "properties": {
        "id": 1536,
        "kompleksid": "50205",
        "kompleksnavn": "Sandnessjøen",
        "driftsenhetsnavn": "Nordland",
        "kulturvernstatus": null,
        "askeladdenid": null,
        "eierstatus2": "Eier (helt eller delvis)"
      },
      "geometry": {
        "type": "Point",
        "coordinates": [12.631605425944743, 66.023607282348038]
      }
    },
    {
      "type": "Feature",
      "properties": {
        "id": 1537,
        "kompleksid": "50206",
        "kompleksnavn": "Dverberg",
        "driftsenhetsnavn": "Nordland",
        "kulturvernstatus": null,
        "askeladdenid": null,
        "eierstatus2": "Eier (helt eller delvis)"
      },
      "geometry": {
        "type": "Point",
        "coordinates": [15.969701722584709, 69.107024565055596]
      }
    },
    {
      "type": "Feature",
      "properties": {
        "id": 1538,
        "kompleksid": "50207",
        "kompleksnavn": "Skarstadhamn",
        "driftsenhetsnavn": "Nordland",
        "kulturvernstatus": null,
        "askeladdenid": null,
        "eierstatus2": "Eier (helt eller delvis)"
      },
      "geometry": {
        "type": "Point",
        "coordinates": [16.278149124973023, 68.364191412116043]
      }
    },
    {
      "type": "Feature",
      "properties": {
        "id": 1539,
        "kompleksid": "50208",
        "kompleksnavn": "Brønnøysund",
        "driftsenhetsnavn": "Nordland",
        "kulturvernstatus": null,
        "askeladdenid": null,
        "eierstatus2": "Eier (helt eller delvis)"
      },
      "geometry": {
        "type": "Point",
        "coordinates": [12.195503169332687, 65.467177769722312]
      }
    },
    {
      "type": "Feature",
      "properties": {
        "id": 1540,
        "kompleksid": "50209",
        "kompleksnavn": "Nykvåg",
        "driftsenhetsnavn": "Nordland",
        "kulturvernstatus": null,
        "askeladdenid": null,
        "eierstatus2": "Eier (helt eller delvis)"
      },
      "geometry": {
        "type": "Point",
        "coordinates": [14.470475084352971, 68.777858974317368]
      }
    },
    {
      "type": "Feature",
      "properties": {
        "id": 1541,
        "kompleksid": "50210",
        "kompleksnavn": "Vinjesjøen",
        "driftsenhetsnavn": "Nordland",
        "kulturvernstatus": null,
        "askeladdenid": null,
        "eierstatus2": "Historisk (avhendet)"
      },
      "geometry": {
        "type": "Point",
        "coordinates": [14.437469997298098, 68.615301413159912]
      }
    },
    {
      "type": "Feature",
      "properties": {
        "id": 1542,
        "kompleksid": "50211",
        "kompleksnavn": "Fredvang",
        "driftsenhetsnavn": "Nordland",
        "kulturvernstatus": null,
        "askeladdenid": null,
        "eierstatus2": "Eier (helt eller delvis)"
      },
      "geometry": {
        "type": "Point",
        "coordinates": [13.170367327136852, 68.082290384506237]
      }
    },
    {
      "type": "Feature",
      "properties": {
        "id": 1543,
        "kompleksid": "50212",
        "kompleksnavn": "Sør-Arnøy",
        "driftsenhetsnavn": "Nordland",
        "kulturvernstatus": null,
        "askeladdenid": null,
        "eierstatus2": "Eier (helt eller delvis)"
      },
      "geometry": {
        "type": "Point",
        "coordinates": [13.97218326472348, 67.135057355548398]
      }
    },
    {
      "type": "Feature",
      "properties": {
        "id": 1544,
        "kompleksid": "50213",
        "kompleksnavn": "Hennes",
        "driftsenhetsnavn": "Nordland",
        "kulturvernstatus": null,
        "askeladdenid": null,
        "eierstatus2": "Eier (helt eller delvis)"
      },
      "geometry": {
        "type": "Point",
        "coordinates": [15.233046159270772, 68.530302150026387]
      }
    },
    {
      "type": "Feature",
      "properties": {
        "id": 1545,
        "kompleksid": "50214",
        "kompleksnavn": "Skutvik",
        "driftsenhetsnavn": "Nordland",
        "kulturvernstatus": null,
        "askeladdenid": null,
        "eierstatus2": "Eier (helt eller delvis)"
      },
      "geometry": {
        "type": "Point",
        "coordinates": [15.338619942367444, 68.012975548579718]
      }
    },
    {
      "type": "Feature",
      "properties": {
        "id": 1546,
        "kompleksid": "50215",
        "kompleksnavn": "Husvær",
        "driftsenhetsnavn": "Nordland",
        "kulturvernstatus": null,
        "askeladdenid": null,
        "eierstatus2": "Historisk (avhendet)"
      },
      "geometry": {
        "type": "Point",
        "coordinates": [12.122521241693891, 65.90989197887491]
      }
    },
    {
      "type": "Feature",
      "properties": {
        "id": 1547,
        "kompleksid": "50216",
        "kompleksnavn": "Lovund",
        "driftsenhetsnavn": "Nordland",
        "kulturvernstatus": null,
        "askeladdenid": null,
        "eierstatus2": "Eier (helt eller delvis)"
      },
      "geometry": {
        "type": "Point",
        "coordinates": [12.371547124316258, 66.36874219065281]
      }
    },
    {
      "type": "Feature",
      "properties": {
        "id": 1548,
        "kompleksid": "50217",
        "kompleksnavn": "Sleneset",
        "driftsenhetsnavn": "Nordland",
        "kulturvernstatus": null,
        "askeladdenid": null,
        "eierstatus2": "Historisk (avhendet)"
      },
      "geometry": {
        "type": "Point",
        "coordinates": [12.613030216692323, 66.364758836036657]
      }
    },
    {
      "type": "Feature",
      "properties": {
        "id": 1549,
        "kompleksid": "50218",
        "kompleksnavn": "Straumøyvalen",
        "driftsenhetsnavn": "Nordland",
        "kulturvernstatus": null,
        "askeladdenid": null,
        "eierstatus2": "Historisk (avhendet)"
      },
      "geometry": {
        "type": "Point",
        "coordinates": [12.593098801664745, 66.36909895338465]
      }
    },
    {
      "type": "Feature",
      "properties": {
        "id": 1550,
        "kompleksid": "50219",
        "kompleksnavn": "Bolga",
        "driftsenhetsnavn": "Nordland",
        "kulturvernstatus": null,
        "askeladdenid": null,
        "eierstatus2": "Eier (helt eller delvis)"
      },
      "geometry": {
        "type": "Point",
        "coordinates": [13.234849325828035, 66.801457828327486]
      }
    },
    {
      "type": "Feature",
      "properties": {
        "id": 1551,
        "kompleksid": "50220",
        "kompleksnavn": "Reipå",
        "driftsenhetsnavn": "Nordland",
        "kulturvernstatus": null,
        "askeladdenid": null,
        "eierstatus2": "Eier (helt eller delvis)"
      },
      "geometry": {
        "type": "Point",
        "coordinates": [13.604385776300624, 66.907451994179794]
      }
    },
    {
      "type": "Feature",
      "properties": {
        "id": 1552,
        "kompleksid": "50221",
        "kompleksnavn": "Bogen",
        "driftsenhetsnavn": "Nordland",
        "kulturvernstatus": null,
        "askeladdenid": null,
        "eierstatus2": "Eier (helt eller delvis)"
      },
      "geometry": {
        "type": "Point",
        "coordinates": [13.010962371814637, 67.885202524464503]
      }
    },
    {
      "type": "Feature",
      "properties": {
        "id": 1553,
        "kompleksid": "50222",
        "kompleksnavn": "Hamnøy",
        "driftsenhetsnavn": "Nordland",
        "kulturvernstatus": null,
        "askeladdenid": null,
        "eierstatus2": "Eier (helt eller delvis)"
      },
      "geometry": {
        "type": "Point",
        "coordinates": [13.135140433478448, 67.947140625727982]
      }
    },
    {
      "type": "Feature",
      "properties": {
        "id": 1554,
        "kompleksid": "50223",
        "kompleksnavn": "Tind",
        "driftsenhetsnavn": "Nordland",
        "kulturvernstatus": null,
        "askeladdenid": null,
        "eierstatus2": "Eier (helt eller delvis)"
      },
      "geometry": {
        "type": "Point",
        "coordinates": [13.001542811837492, 67.885256615410682]
      }
    },
    {
      "type": "Feature",
      "properties": {
        "id": 1555,
        "kompleksid": "50224",
        "kompleksnavn": "Helnessund",
        "driftsenhetsnavn": "Nordland",
        "kulturvernstatus": null,
        "askeladdenid": null,
        "eierstatus2": "Eier (helt eller delvis)"
      },
      "geometry": {
        "type": "Point",
        "coordinates": [14.770620289601281, 67.732799329022427]
      }
    },
    {
      "type": "Feature",
      "properties": {
        "id": 1557,
        "kompleksid": "50226",
        "kompleksnavn": "Nordfold",
        "driftsenhetsnavn": "Nordland",
        "kulturvernstatus": null,
        "askeladdenid": null,
        "eierstatus2": "Eier (helt eller delvis)"
      },
      "geometry": {
        "type": "Point",
        "coordinates": [15.246315458797712, 67.7657802536567]
      }
    },
    {
      "type": "Feature",
      "properties": {
        "id": 1558,
        "kompleksid": "50227",
        "kompleksnavn": "Vikvågen",
        "driftsenhetsnavn": "Nordland",
        "kulturvernstatus": null,
        "askeladdenid": null,
        "eierstatus2": "Eier (helt eller delvis)"
      },
      "geometry": {
        "type": "Point",
        "coordinates": [12.140885007468004, 65.304306708568731]
      }
    },
    {
      "type": "Feature",
      "properties": {
        "id": 1559,
        "kompleksid": "50228",
        "kompleksnavn": "Korsnes",
        "driftsenhetsnavn": "Nordland",
        "kulturvernstatus": null,
        "askeladdenid": null,
        "eierstatus2": "Eier (helt eller delvis)"
      },
      "geometry": {
        "type": "Point",
        "coordinates": [16.063104717212138, 68.252925881567009]
      }
    },
    {
      "type": "Feature",
      "properties": {
        "id": 1560,
        "kompleksid": "50229",
        "kompleksnavn": "Nes-Holand",
        "driftsenhetsnavn": "Nordland",
        "kulturvernstatus": null,
        "askeladdenid": null,
        "eierstatus2": "Historisk (avhendet)"
      },
      "geometry": {
        "type": "Point",
        "coordinates": [11.92766948091287, 65.708436761841313]
      }
    },
    {
      "type": "Feature",
      "properties": {
        "id": 1561,
        "kompleksid": "50230",
        "kompleksnavn": "Eggum",
        "driftsenhetsnavn": "Nordland",
        "kulturvernstatus": null,
        "askeladdenid": null,
        "eierstatus2": "Historisk (avhendet)"
      },
      "geometry": {
        "type": "Point",
        "coordinates": [13.680587832209888, 68.31066984478646]
      }
    },
    {
      "type": "Feature",
      "properties": {
        "id": 1562,
        "kompleksid": "50231",
        "kompleksnavn": "Mjåsund",
        "driftsenhetsnavn": "Nordland",
        "kulturvernstatus": null,
        "askeladdenid": null,
        "eierstatus2": "Eier (helt eller delvis)"
      },
      "geometry": {
        "type": "Point",
        "coordinates": [13.716100605649308, 68.298369218954065]
      }
    },
    {
      "type": "Feature",
      "properties": {
        "id": 1563,
        "kompleksid": "50232",
        "kompleksnavn": "Mortsund",
        "driftsenhetsnavn": "Nordland",
        "kulturvernstatus": null,
        "askeladdenid": null,
        "eierstatus2": "Eier (helt eller delvis)"
      },
      "geometry": {
        "type": "Point",
        "coordinates": [13.63960133746783, 68.082652905880025]
      }
    },
    {
      "type": "Feature",
      "properties": {
        "id": 1564,
        "kompleksid": "50233",
        "kompleksnavn": "Tangstad",
        "driftsenhetsnavn": "Nordland",
        "kulturvernstatus": null,
        "askeladdenid": null,
        "eierstatus2": "Eier (helt eller delvis)"
      },
      "geometry": {
        "type": "Point",
        "coordinates": [13.627602379378351, 68.237554831281045]
      }
    },
    {
      "type": "Feature",
      "properties": {
        "id": 1565,
        "kompleksid": "50234",
        "kompleksnavn": "Vestresand",
        "driftsenhetsnavn": "Nordland",
        "kulturvernstatus": null,
        "askeladdenid": null,
        "eierstatus2": "Eier (helt eller delvis)"
      },
      "geometry": {
        "type": "Point",
        "coordinates": [13.855661407278991, 68.309557371311982]
      }
    },
    {
      "type": "Feature",
      "properties": {
        "id": 1566,
        "kompleksid": "50235",
        "kompleksnavn": "Hovsund",
        "driftsenhetsnavn": "Nordland",
        "kulturvernstatus": null,
        "askeladdenid": null,
        "eierstatus2": "Eier (helt eller delvis)"
      },
      "geometry": {
        "type": "Point",
        "coordinates": [14.083185662638753, 68.343527143103842]
      }
    },
    {
      "type": "Feature",
      "properties": {
        "id": 1567,
        "kompleksid": "50236",
        "kompleksnavn": "Kabelvåg",
        "driftsenhetsnavn": "Nordland",
        "kulturvernstatus": null,
        "askeladdenid": null,
        "eierstatus2": "Eier (helt eller delvis)"
      },
      "geometry": {
        "type": "Point",
        "coordinates": [14.486542247166797, 68.209190424714478]
      }
    },
    {
      "type": "Feature",
      "properties": {
        "id": 1568,
        "kompleksid": "50237",
        "kompleksnavn": "Kleppstad",
        "driftsenhetsnavn": "Nordland",
        "kulturvernstatus": null,
        "askeladdenid": null,
        "eierstatus2": "Eier (helt eller delvis)"
      },
      "geometry": {
        "type": "Point",
        "coordinates": [14.266208395792557, 68.254581422313692]
      }
    },
    {
      "type": "Feature",
      "properties": {
        "id": 1569,
        "kompleksid": "50238",
        "kompleksnavn": "Laukvik",
        "driftsenhetsnavn": "Nordland",
        "kulturvernstatus": null,
        "askeladdenid": null,
        "eierstatus2": "Eier (helt eller delvis)"
      },
      "geometry": {
        "type": "Point",
        "coordinates": [14.410437345413882, 68.388238508661829]
      }
    },
    {
      "type": "Feature",
      "properties": {
        "id": 1570,
        "kompleksid": "50239",
        "kompleksnavn": "Alsvåg",
        "driftsenhetsnavn": "Nordland",
        "kulturvernstatus": null,
        "askeladdenid": null,
        "eierstatus2": "Eier (helt eller delvis)"
      },
      "geometry": {
        "type": "Point",
        "coordinates": [15.284760441468658, 68.900519906242153]
      }
    },
    {
      "type": "Feature",
      "properties": {
        "id": 1571,
        "kompleksid": "50240",
        "kompleksnavn": "Stø",
        "driftsenhetsnavn": "Nordland",
        "kulturvernstatus": null,
        "askeladdenid": null,
        "eierstatus2": "Eier (helt eller delvis)"
      },
      "geometry": {
        "type": "Point",
        "coordinates": [15.116381080702078, 69.019813885712011]
      }
    },
    {
      "type": "Feature",
      "properties": {
        "id": 1572,
        "kompleksid": "50241",
        "kompleksnavn": "Tjøtta",
        "driftsenhetsnavn": "Nordland",
        "kulturvernstatus": null,
        "askeladdenid": null,
        "eierstatus2": "Historisk (avhendet)"
      },
      "geometry": {
        "type": "Point",
        "coordinates": [12.428378868233988, 65.820506140633512]
      }
    },
    {
      "type": "Feature",
      "properties": {
        "id": 1573,
        "kompleksid": "50242",
        "kompleksnavn": "Nøss",
        "driftsenhetsnavn": "Nordland",
        "kulturvernstatus": null,
        "askeladdenid": null,
        "eierstatus2": "Historisk (avhendet)"
      },
      "geometry": {
        "type": "Point",
        "coordinates": [15.555012874764257, 69.085558061447458]
      }
    },